{
  "source": "Honduras.xlsx; Honduras.xlsx; Honduras2.xlsx",
  "points": [
    {
      "pais": "Honduras",
      "departamento": "Francisco Morazán",
      "ciudad": "Guaimaca",
      "nombre": "Pulperia Samir",
      "direccion": "Bo. El Centro,",
      "latitud": "14.5381017",
      "longitud": "-86.8327"
    },
    {
      "pais": "Honduras",
      "departamento": "Francisco Morazán",
      "ciudad": "Distrito Central",
      "nombre": "Mercadito Johan",
      "direccion": "Residencial el Mananthial calle principal",
      "latitud": "13.9743692",
      "longitud": "-87.2012488"
    },
    {
      "pais": "Honduras",
      "departamento": "Francisco Morazán",
      "ciudad": "Colonia Las Brisas",
      "nombre": "Pulperia Hermanos Canales",
      "direccion": "COL. LAS BRISAS calle principal",
      "latitud": "14.0704612",
      "longitud": "-87.2074919"
    },
    {
      "pais": "Honduras",
      "departamento": "Francisco Morazán",
      "ciudad": "Cerro Grande Zona 4",
      "nombre": "Pulperia Nazareth",
      "direccion": "Tegucigalpa",
      "latitud": "14.1220804",
      "longitud": "-87.2194586"
    },
    {
      "pais": "Honduras",
      "departamento": "Olancho",
      "ciudad": "Juticalpa",
      "nombre": "Pulpería Evelyn",
      "direccion": "Juticalpa, Barrio Jesús,",
      "latitud": "14.6619014",
      "longitud": "-86.2180055"
    },
    {
      "pais": "Honduras",
      "departamento": "Olancho",
      "ciudad": "Santa Maria del Real",
      "nombre": "Pulperia Anderson",
      "direccion": "B. El centro",
      "latitud": "14.825371",
      "longitud": "-85.9310873"
    },
    {
      "pais": "Honduras",
      "departamento": "El Paraíso",
      "ciudad": "Trojes",
      "nombre": "Pulperia Norma",
      "direccion": "Barrio Alfonso XIII",
      "latitud": "14.0812157",
      "longitud": "-85.9993084"
    },
    {
      "pais": "Honduras",
      "departamento": "Francisco Morazán",
      "ciudad": "Guaimaca",
      "nombre": "Deposito Y Pulperia Cristopher",
      "direccion": "Entrada Guaimaca",
      "latitud": "14.557514",
      "longitud": "-86.834718"
    },
    {
      "pais": "Honduras",
      "departamento": "Francisco Morazán",
      "ciudad": "Barrio Abajo",
      "nombre": "Pollos Emily",
      "direccion": "Bo. Abajo,",
      "latitud": "14.1071276",
      "longitud": "-87.2093094"
    },
    {
      "pais": "Honduras",
      "departamento": "Francisco Morazán",
      "ciudad": "Barrio Abajo",
      "nombre": "Pollos Emily",
      "direccion": "Bo. Abajo,",
      "latitud": "14.1071276",
      "longitud": "-87.2093094"
    },
    {
      "pais": "Honduras",
      "departamento": "Francisco Morazán",
      "ciudad": "Guaimaca",
      "nombre": "Bodega Avilés",
      "direccion": "Guaimaca Calle Principal",
      "latitud": "14.5389999",
      "longitud": "-86.8300216"
    },
    {
      "pais": "Honduras",
      "departamento": "Olancho",
      "ciudad": "La Colonia",
      "nombre": "Pulp. Yiret",
      "direccion": "Aldea La colonia",
      "latitud": "15.211227",
      "longitud": "-85.42235"
    },
    {
      "pais": "Honduras",
      "departamento": "El Paraíso",
      "ciudad": "Chichicaste",
      "nombre": "Pulp. La Bendicion",
      "direccion": "Chichicaste",
      "latitud": "14.0879369",
      "longitud": "-86.3030709"
    },
    {
      "pais": "Honduras",
      "departamento": "El Paraíso",
      "ciudad": "Teupasenti",
      "nombre": "Pulp San Miguel",
      "direccion": "Barrio el centro",
      "latitud": "14.2266181",
      "longitud": "-86.7154802"
    },
    {
      "pais": "Honduras",
      "departamento": "El Paraíso",
      "ciudad": "Trojes",
      "nombre": "Pulperia Larisa",
      "direccion": "Barrio Cabañas",
      "latitud": "14.07717667",
      "longitud": "-85.9966476"
    },
    {
      "pais": "Honduras",
      "departamento": "El Paraíso",
      "ciudad": "Danlí",
      "nombre": "Pulp.Paquita",
      "direccion": "Barrio San Martin",
      "latitud": "14.031841",
      "longitud": "-86.563509"
    },
    {
      "pais": "Honduras",
      "departamento": "El Paraíso",
      "ciudad": "San Diego",
      "nombre": "Pul. Karla",
      "direccion": "San Diego",
      "latitud": "14.052805",
      "longitud": "-86.446196"
    },
    {
      "pais": "Honduras",
      "departamento": "El Paraíso",
      "ciudad": "El Paraíso",
      "nombre": "Pulperia Anyelo",
      "direccion": "Colonia 24 de Diciembre",
      "latitud": "13.8781459",
      "longitud": "-86.5499662"
    },
    {
      "pais": "Honduras",
      "departamento": "El Paraíso",
      "ciudad": "Danlí",
      "nombre": "Pulperia La Economica",
      "direccion": "Barrio Buenos aires",
      "latitud": "14.025408",
      "longitud": "-86.57094"
    },
    {
      "pais": "Honduras",
      "departamento": "El Paraíso",
      "ciudad": "Jutiapa",
      "nombre": "Comercial San Luis",
      "direccion": "Jutiapa",
      "latitud": "13.9890826",
      "longitud": "-86.3998525"
    },
    {
      "pais": "Honduras",
      "departamento": "Olancho",
      "ciudad": "San Francisco de Becerra",
      "nombre": "Pul Popular",
      "direccion": "Bo el centro",
      "latitud": "14.6468466",
      "longitud": "-86.1057883"
    },
    {
      "pais": "Honduras",
      "departamento": "Francisco Morazán",
      "ciudad": "Tegucigalpa",
      "nombre": "Caseta Coca Cola Pulp. Hatillo",
      "direccion": "El  HATILLO, Calle Prinicipal",
      "latitud": "14.1371889",
      "longitud": "-87.1593078"
    },
    {
      "pais": "Honduras",
      "departamento": "Olancho",
      "ciudad": "Juticalpa",
      "nombre": "Pulperia Lizy",
      "direccion": "Col. Sinai",
      "latitud": "14.6584616",
      "longitud": "-86.2328347"
    },
    {
      "pais": "Honduras",
      "departamento": "El Paraíso",
      "ciudad": "Danlí",
      "nombre": "Abarroteria La Nueva",
      "direccion": "Colonia Bella Vista",
      "latitud": "14.0371854",
      "longitud": "-86.582534"
    },
    {
      "pais": "Honduras",
      "departamento": "Francisco Morazán",
      "ciudad": "Villanueva",
      "nombre": "Pulperia Kathy",
      "direccion": "Villanueva Principal 1 Cuadra Arriba De 5 Estrellas",
      "latitud": "14.0617926",
      "longitud": "-87.1639516"
    },
    {
      "pais": "Honduras",
      "departamento": "El Paraíso",
      "ciudad": "Danlí",
      "nombre": "Abarroteria El Cruce",
      "direccion": "Colonia Nueva esperanza",
      "latitud": "14.05252464",
      "longitud": "-86.55442149"
    },
    {
      "pais": "Honduras",
      "departamento": "Francisco Morazán",
      "ciudad": "Talanga",
      "nombre": "Dulcería Jose,S. #2",
      "direccion": "Barrio el Centro, Cll Principal",
      "latitud": "14.4059066",
      "longitud": "-87.0830133"
    },
    {
      "pais": "Honduras",
      "departamento": "Francisco Morazán",
      "ciudad": "Vallecillo",
      "nombre": "Pulp. 2 Hermanos",
      "direccion": "Vallecillos, calle Principal",
      "latitud": "14.5184897",
      "longitud": "-87.3991351"
    },
    {
      "pais": "Honduras",
      "departamento": "Choluteca",
      "ciudad": "Barrio La Cruz",
      "nombre": "Mercadito El Milagro",
      "direccion": "Barrio tamarindo, calle principal al casco historico",
      "latitud": "13.3078846",
      "longitud": "-87.1915986"
    },
    {
      "pais": "Honduras",
      "departamento": "Comayagua",
      "ciudad": "San Jerónimo",
      "nombre": "Pulperia Necho",
      "direccion": "1 Cuadras del estadio de San Jeronimo",
      "latitud": "14.6274068",
      "longitud": "-87.6057123"
    },
    {
      "pais": "Honduras",
      "departamento": "Comayagua",
      "ciudad": "Lejamaní",
      "nombre": "Pulperia diana",
      "direccion": "Calle Principal",
      "latitud": "14.367927",
      "longitud": "-87.708188"
    },
    {
      "pais": "Honduras",
      "departamento": "Francisco Morazán",
      "ciudad": "Villa de San Francisco",
      "nombre": "Abarroteria Denia",
      "direccion": "Barrio el progreso",
      "latitud": "14.176639",
      "longitud": "-86.9563329"
    },
    {
      "pais": "Honduras",
      "departamento": "El Paraíso",
      "ciudad": "El Paraíso",
      "nombre": "Pulpería Valentinas",
      "direccion": "Barrio nuevo carmelo",
      "latitud": "13.8616013",
      "longitud": "-86.5556433"
    },
    {
      "pais": "Honduras",
      "departamento": "El Paraíso",
      "ciudad": "Arauli",
      "nombre": "Variedades Sosa",
      "direccion": "Arauli",
      "latitud": "13.972628",
      "longitud": "-86.545641"
    },
    {
      "pais": "Honduras",
      "departamento": "Comayagua",
      "ciudad": "Siguatepeque",
      "nombre": "Pul Fatima",
      "direccion": "2 cuadra al este de iglesia católica Fátima",
      "latitud": "14.605416",
      "longitud": "-87.833817"
    },
    {
      "pais": "Honduras",
      "departamento": "Choluteca",
      "ciudad": "Choluteca",
      "nombre": "Pulperia Bendición De Dios",
      "direccion": "Colonia Limon de la Cerca",
      "latitud": "13.3477358",
      "longitud": "-87.1289052"
    },
    {
      "pais": "Honduras",
      "departamento": "Choluteca",
      "ciudad": "Barrio Nueva Esperanza",
      "nombre": "Pul. Mimi",
      "direccion": "CHOLUTECA,BARRIO las brisas",
      "latitud": "13.2995915",
      "longitud": "-87.1741034"
    },
    {
      "pais": "Honduras",
      "departamento": "Francisco Morazán",
      "ciudad": "Nueva Providencia",
      "nombre": "Pulperia La Bendicion",
      "direccion": "Col. Cantarero, Sector N. 2",
      "latitud": "14.0951595",
      "longitud": "-87.2454824"
    },
    {
      "pais": "Honduras",
      "departamento": "Olancho",
      "ciudad": "Terrero Blanco",
      "nombre": "Pulpería Sara",
      "direccion": "Terrero Blanco",
      "latitud": "14.4129409",
      "longitud": "-86.0551173"
    },
    {
      "pais": "Honduras",
      "departamento": "Choluteca",
      "ciudad": "San Francisco",
      "nombre": "Mercadito La Barranquilla",
      "direccion": "Carretera panamericana,camino a san marcos",
      "latitud": "13.37655",
      "longitud": "-86.888723"
    },
    {
      "pais": "Honduras",
      "departamento": "Olancho",
      "ciudad": "Catacamas",
      "nombre": "Pulperia Angel",
      "direccion": "Barrio Ojo De agua",
      "latitud": "14.83813",
      "longitud": "-85.89287"
    },
    {
      "pais": "Honduras",
      "departamento": "Choluteca",
      "ciudad": "Barrio Nueva Esperanza",
      "nombre": "Pul. Kenia",
      "direccion": "Barrio las brisas calle principal",
      "latitud": "13.2995883",
      "longitud": "-87.1740733"
    },
    {
      "pais": "Honduras",
      "departamento": "Choluteca",
      "ciudad": "Choluteca",
      "nombre": "Pul. Samantha",
      "direccion": "BARRIO EL ESTRUENDO calle principal",
      "latitud": "13.303421",
      "longitud": "-87.17104"
    },
    {
      "pais": "Honduras",
      "departamento": "Choluteca",
      "ciudad": "Choluteca",
      "nombre": "Inverciones  Cesia",
      "direccion": "Colonia la gran victoria calle principal",
      "latitud": "13.3053366",
      "longitud": "-87.1460868"
    },
    {
      "pais": "Honduras",
      "departamento": "Comayagua",
      "ciudad": "Brisas de Altamira",
      "nombre": "Mercadito La Fortaleza",
      "direccion": "Calle principa",
      "latitud": "14.4499947",
      "longitud": "-87.6271272"
    },
    {
      "pais": "Honduras",
      "departamento": "Francisco Morazán",
      "ciudad": "Villa Delmi",
      "nombre": "Pul. Orocuina",
      "direccion": "Col. Suaso cordova, calle Principal",
      "latitud": "14.1145445",
      "longitud": "-87.184735"
    },
    {
      "pais": "Honduras",
      "departamento": "Comayagua",
      "ciudad": "El Porvenir",
      "nombre": "Mercadito Intibucano",
      "direccion": "Contiguo a La Casa de La Cultura de la aldea",
      "latitud": "14.587191",
      "longitud": "-87.8928276"
    },
    {
      "pais": "Honduras",
      "departamento": "Choluteca",
      "ciudad": "Santa Ana de Yusguare",
      "nombre": "Pulperia Mary",
      "direccion": "calle que se toma para ir al corpus",
      "latitud": "13.3040271",
      "longitud": "-87.1091927"
    },
    {
      "pais": "Honduras",
      "departamento": "Choluteca",
      "ciudad": "Choluteca",
      "nombre": "Pul. Mirna",
      "direccion": "col. Unidas calle principal a la par inversiones marlon",
      "latitud": "13.3377082",
      "longitud": "-87.2323853"
    },
    {
      "pais": "Honduras",
      "departamento": "Francisco Morazán",
      "ciudad": "Agalteca",
      "nombre": "Abarroteria R Y R",
      "direccion": "Barrio Abajo Agalteca",
      "latitud": "14.4492487",
      "longitud": "-87.2624973"
    },
    {
      "pais": "Honduras",
      "departamento": "Olancho",
      "ciudad": "El Cortés",
      "nombre": "Pulperia Fernando",
      "direccion": "Barrio Abajo.",
      "latitud": "14.7884644",
      "longitud": "-86.1273277"
    },
    {
      "pais": "Honduras",
      "departamento": "Francisco Morazán",
      "ciudad": "Lepaterique",
      "nombre": "Pulperia El Chele",
      "direccion": "Lepaterique Barrio el centro calle pricipal",
      "latitud": "14.0645228",
      "longitud": "-87.4702134"
    },
    {
      "pais": "Honduras",
      "departamento": "Francisco Morazán",
      "ciudad": "Támara",
      "nombre": "Pulp. Tifany Kenneth",
      "direccion": "Tamara Barrio El Matazano Frente A Iglesia De Cristo",
      "latitud": "14.1660167",
      "longitud": "-87.3373733"
    },
    {
      "pais": "Honduras",
      "departamento": "Francisco Morazán",
      "ciudad": "José Ángel Ulloa",
      "nombre": "Real Market",
      "direccion": "Tegucigalpa Col. Ulloa Sector 6",
      "latitud": "14.1010003",
      "longitud": "-87.2516569"
    },
    {
      "pais": "Honduras",
      "departamento": "Francisco Morazán",
      "ciudad": "Colonia La Delicias",
      "nombre": "Mercadito Mari",
      "direccion": "Colonia Flor del campo calle principla",
      "latitud": "14.07205144",
      "longitud": "-87.22425666"
    },
    {
      "pais": "Honduras",
      "departamento": "Francisco Morazán",
      "ciudad": "Tegucigalpa",
      "nombre": "Las Casitas Market",
      "direccion": "Colonia las Casitas calle principal",
      "latitud": "14.0517055",
      "longitud": "-87.2589694"
    },
    {
      "pais": "Honduras",
      "departamento": "Francisco Morazán",
      "ciudad": "Valle de Ángeles",
      "nombre": "Abarroteria La Bendicion",
      "direccion": "Barrio Sunteco, Calle Principal",
      "latitud": "14.1589439",
      "longitud": "-87.0425434"
    },
    {
      "pais": "Honduras",
      "departamento": "Choluteca",
      "ciudad": "Linaca",
      "nombre": "Pulperia Dos Hermanos",
      "direccion": "Linaca en la calle principal de los buses",
      "latitud": "13.425422",
      "longitud": "-87.170366"
    },
    {
      "pais": "Honduras",
      "departamento": "Comayagua",
      "ciudad": "Barrio Abajo",
      "nombre": "Fercoman",
      "direccion": "calle principal",
      "latitud": "14.4645907",
      "longitud": "-87.6467861"
    },
    {
      "pais": "Honduras",
      "departamento": "Francisco Morazán",
      "ciudad": "Siria",
      "nombre": "Pulp Yenifer",
      "direccion": "Siria",
      "latitud": "14.6492114",
      "longitud": "-87.1451767"
    },
    {
      "pais": "Honduras",
      "departamento": "Comayagua",
      "ciudad": "Comayagua",
      "nombre": "Chamor",
      "direccion": "Calle a la policia",
      "latitud": "14.458931",
      "longitud": "-87.661389"
    },
    {
      "pais": "Honduras",
      "departamento": "La Paz",
      "ciudad": "Marcala",
      "nombre": "mercadito chely",
      "direccion": "Calle al mercado",
      "latitud": "14.1556347",
      "longitud": "-88.0368615"
    },
    {
      "pais": "Honduras",
      "departamento": "Choluteca",
      "ciudad": "Pueblo Nuevo",
      "nombre": "Pul. Lidia",
      "direccion": "Colonia Renacer 2 Cuadras el norte despues del Tanque agua",
      "latitud": "13.222377",
      "longitud": "-87.447365"
    },
    {
      "pais": "Honduras",
      "departamento": "Francisco Morazán",
      "ciudad": "Tegucigalpa",
      "nombre": "Pulperia Mendez",
      "direccion": "Colonia Linda Vista calle principal",
      "latitud": "14.086294",
      "longitud": "-87.2575271"
    },
    {
      "pais": "Honduras",
      "departamento": "Comayagua",
      "ciudad": "El Porvenir",
      "nombre": "Variedades Y Bodega El Eden",
      "direccion": "FRENTE PAIMENTO CALLE HACIA OTORO",
      "latitud": "14.594314",
      "longitud": "-87.8759758"
    },
    {
      "pais": "Honduras",
      "departamento": "Choluteca",
      "ciudad": "El Cacao",
      "nombre": "Inversiones Aza-Sur",
      "direccion": "Azacualpa 1/2 Cuadra al oeste de Centro Basico Casi al Frente",
      "latitud": "13.0806692",
      "longitud": "-87.0781965"
    },
    {
      "pais": "Honduras",
      "departamento": "Francisco Morazán",
      "ciudad": "Colonia Hato del Medio",
      "nombre": "Pulperia Kevin",
      "direccion": "Colonia el Hato # 1 Calle principal",
      "latitud": "14.0722864",
      "longitud": "-87.1774362"
    },
    {
      "pais": "Honduras",
      "departamento": "Comayagua",
      "ciudad": "Agua Dulce",
      "nombre": "Mercadito Las Acacias",
      "direccion": "Aldea agua dulce Calle principal, Siguatepeque",
      "latitud": "14.6599411",
      "longitud": "-87.8140642"
    },
    {
      "pais": "Honduras",
      "departamento": "Valle",
      "ciudad": "El Cubulero",
      "nombre": "Pulperia Y Billares Yoely",
      "direccion": "Aldea el cubulero calle principal",
      "latitud": "13.486276",
      "longitud": "-87.690822"
    },
    {
      "pais": "Honduras",
      "departamento": "Francisco Morazán",
      "ciudad": "San Matías",
      "nombre": "Pul Billares Los Primos",
      "direccion": "Tegucigalpa",
      "latitud": "14.1437877",
      "longitud": "-87.3427502"
    },
    {
      "pais": "Honduras",
      "departamento": "Valle",
      "ciudad": "San Lorenzo",
      "nombre": "Pulperia Aida",
      "direccion": "Aldea San Jeronimo",
      "latitud": "13.498965",
      "longitud": "-87.420105"
    },
    {
      "pais": "Honduras",
      "departamento": "Valle",
      "ciudad": "Nacaome",
      "nombre": "Pulp. Lucia",
      "direccion": "Aldea. El chiflon calle principal",
      "latitud": "13.5520667",
      "longitud": "-87.47254"
    },
    {
      "pais": "Honduras",
      "departamento": "Olancho",
      "ciudad": "El Guayabito",
      "nombre": "Abarroteria Mariano",
      "direccion": "Aldea el Guayabito",
      "latitud": "14.7837033",
      "longitud": "-85.943015"
    },
    {
      "pais": "Honduras",
      "departamento": "Comayagua",
      "ciudad": "Taulabé",
      "nombre": "Pulperia Hellen",
      "direccion": "ANTES DE LLEGAR A LA PLAZITA LA CEIBA",
      "latitud": "14.6901928",
      "longitud": "-87.9659031"
    },
    {
      "pais": "Honduras",
      "departamento": "Olancho",
      "ciudad": "Talanquera",
      "nombre": "Pulp. La Talaquera",
      "direccion": "Aldea Talanquera",
      "latitud": "14.6138965",
      "longitud": "-86.2408932"
    },
    {
      "pais": "Honduras",
      "departamento": "Olancho",
      "ciudad": "Campamento",
      "nombre": "Pulperia Kelin",
      "direccion": "Barrio Lempira",
      "latitud": "14.5524868",
      "longitud": "-86.6697937"
    },
    {
      "pais": "Honduras",
      "departamento": "Comayagua",
      "ciudad": "Bacadilla",
      "nombre": "La Tienda De Todos",
      "direccion": "CALLE HACIA EL CAMPO DE BACADILLA",
      "latitud": "14.7729598",
      "longitud": "-87.950877"
    },
    {
      "pais": "Honduras",
      "departamento": "Comayagua",
      "ciudad": "Siguatepeque",
      "nombre": "Lacteos Girasol",
      "direccion": "FRENTE GASOLINERA TEXACO CRUZ",
      "latitud": "14.57641214",
      "longitud": "-87.83469323"
    },
    {
      "pais": "Honduras",
      "departamento": "Comayagua",
      "ciudad": "San Luis",
      "nombre": "Pulperia Asly",
      "direccion": "El Pedernal",
      "latitud": "14.7515526",
      "longitud": "-87.4093188"
    },
    {
      "pais": "Honduras",
      "departamento": "Valle",
      "ciudad": "San Francisco de Coray",
      "nombre": "Distribuidora Chavez",
      "direccion": "B. Miraflores,Segunda Calle,A La Par De La Carniceria",
      "latitud": "13.6624834",
      "longitud": "-87.5337413"
    },
    {
      "pais": "Honduras",
      "departamento": "Valle",
      "ciudad": "Langue",
      "nombre": "Pulperia Reyna",
      "direccion": "B° Buena Vista, 1 Cda. Al Oeste De Empresa De Consumo.",
      "latitud": "13.6552183",
      "longitud": "-87.6388336"
    },
    {
      "pais": "Honduras",
      "departamento": "Valle",
      "ciudad": "Langue",
      "nombre": "Mercadito Alfredo Tel",
      "direccion": "B° EL MERCADO FTE RADIO EXTASIS",
      "latitud": "13.6224019",
      "longitud": "-87.6529492"
    },
    {
      "pais": "Honduras",
      "departamento": "Intibucá",
      "ciudad": "La Esperanza",
      "nombre": "Pul Sanchez",
      "direccion": "B° Santa Catarina Calle Pavimentada Antes De La Posta Polici",
      "latitud": "14.3211369",
      "longitud": "-88.1541043"
    },
    {
      "pais": "Honduras",
      "departamento": "Valle",
      "ciudad": "Nacaome",
      "nombre": "Pulperia Nilon",
      "direccion": "Barrio Abajo, Media Cuadra del Campo",
      "latitud": "13.5286216",
      "longitud": "-87.4918293"
    },
    {
      "pais": "Honduras",
      "departamento": "Intibucá",
      "ciudad": "La Esperanza",
      "nombre": "Suplidora Rivas",
      "direccion": "SALIDA DE LA ESPERANZA A LA FRONTERA",
      "latitud": "14.3103068",
      "longitud": "-88.1826173"
    },
    {
      "pais": "Honduras",
      "departamento": "Francisco Morazán",
      "ciudad": "Reitoca",
      "nombre": "Pulp.Wilmer",
      "direccion": "Reitoca calle principal",
      "latitud": "13.826015",
      "longitud": "-87.465185"
    },
    {
      "pais": "Honduras",
      "departamento": "Valle",
      "ciudad": "El Picacho",
      "nombre": "Pulperia Nora",
      "direccion": "Barrio El centro Langue Valle",
      "latitud": "13.6111076",
      "longitud": "-87.7204921"
    },
    {
      "pais": "Honduras",
      "departamento": "Olancho",
      "ciudad": "Palestina",
      "nombre": "Abarrotería Patuca",
      "direccion": "Palestina",
      "latitud": "14.345578",
      "longitud": "-85.887744"
    },
    {
      "pais": "Honduras",
      "departamento": "Francisco Morazán",
      "ciudad": "Colonia La Reforma",
      "nombre": "Mercadito Lilian",
      "direccion": "Tegucigalpa",
      "latitud": "14.1072839",
      "longitud": "-87.1915926"
    },
    {
      "pais": "Honduras",
      "departamento": "Comayagua",
      "ciudad": "Siguatepeque",
      "nombre": "Mini Market Leandro",
      "direccion": "Barrio San Antonio calle principal. Siguatepeque",
      "latitud": "14.6022329",
      "longitud": "-87.8276228"
    },
    {
      "pais": "Honduras",
      "departamento": "Intibucá",
      "ciudad": "La Esperanza",
      "nombre": "Pul. Nancy",
      "direccion": "BARRIO SAN CARLOS CALLE PRINCIPAL",
      "latitud": "14.2910829",
      "longitud": "-88.1746456"
    },
    {
      "pais": "Honduras",
      "departamento": "Francisco Morazán",
      "ciudad": "Sta. Cruz Arriba",
      "nombre": "Mercadito Santa Cruz",
      "direccion": "Tegucigalpa",
      "latitud": "14.1368149",
      "longitud": "-87.2832103"
    },
    {
      "pais": "Honduras",
      "departamento": "Francisco Morazán",
      "ciudad": "Tegucigalpa",
      "nombre": "Mercadito Denise",
      "direccion": "Res.Maria Auxiliadora calle principal",
      "latitud": "14.011543",
      "longitud": "-87.195326"
    },
    {
      "pais": "Honduras",
      "departamento": "Francisco Morazán",
      "ciudad": "Residencial Francisco Morazán",
      "nombre": "Mercadito El Retorno",
      "direccion": "Resc. Francisco Morazan  Calle Principal",
      "latitud": "14.0656305",
      "longitud": "-87.2336712"
    },
    {
      "pais": "Honduras",
      "departamento": "Francisco Morazán",
      "ciudad": "Tegucigalpa",
      "nombre": "Mini Super 3 Amigos",
      "direccion": "Res. Hacienda Real,calle principal",
      "latitud": "14.0405229",
      "longitud": "-87.268643"
    },
    {
      "pais": "Honduras",
      "departamento": "Olancho",
      "ciudad": "Jutiquile",
      "nombre": "Pulp Nataly",
      "direccion": "Aldea Jutiquile",
      "latitud": "14.7387689",
      "longitud": "-86.0908585"
    },
    {
      "pais": "Honduras",
      "departamento": "Intibucá",
      "ciudad": "Intibucá",
      "nombre": "Pulperia Nuevo Amanecer",
      "direccion": "Bo. El Way Frente a Plaza Brassavola",
      "latitud": "14.314103",
      "longitud": "-88.160673"
    },
    {
      "pais": "Honduras",
      "departamento": "Francisco Morazán",
      "ciudad": "Tegucigalpa",
      "nombre": "Golosinas Oriental",
      "direccion": "Tegucigalpa",
      "latitud": "14.1081462",
      "longitud": "-87.1902505"
    },
    {
      "pais": "Honduras",
      "departamento": "Comayagua",
      "ciudad": "Flores",
      "nombre": "pulperia celeste",
      "direccion": "Barrio La Curva",
      "latitud": "14.2890697",
      "longitud": "-87.5698767"
    },
    {
      "pais": "Honduras",
      "departamento": "Comayagua",
      "ciudad": "Villa de San Antonio",
      "nombre": "pulperia ramses",
      "direccion": "carretera a tegucigalpa",
      "latitud": "14.269114",
      "longitud": "-87.548774"
    },
    {
      "pais": "Honduras",
      "departamento": "Comayagua",
      "ciudad": "Siguatepeque",
      "nombre": "Beef Market La Ternera",
      "direccion": "Cale del Boulevar ,antes del mercado el Rpidito",
      "latitud": "14.5992084",
      "longitud": "-87.8430666"
    },
    {
      "pais": "Honduras",
      "departamento": "Comayagua",
      "ciudad": "Barrio Torondon",
      "nombre": "Mini Super Torondon",
      "direccion": "Atrás del Hospital",
      "latitud": "14.4519726",
      "longitud": "-87.6420841"
    },
    {
      "pais": "Honduras",
      "departamento": "Olancho",
      "ciudad": "Juticalpa",
      "nombre": "Pulperia  Alfredo",
      "direccion": "col los profesores",
      "latitud": "14.66516",
      "longitud": "-86.220408"
    },
    {
      "pais": "Honduras",
      "departamento": "Intibucá",
      "ciudad": "Candelaria De Togopala",
      "nombre": "Pulp.Joaquín",
      "direccion": "CALLE PRICIPAL DE LA COMUNIDAD",
      "latitud": "14.4394122",
      "longitud": "-88.2231549"
    },
    {
      "pais": "Honduras",
      "departamento": "Francisco Morazán",
      "ciudad": "Ciudad Kennedy",
      "nombre": "Pulperia Andrea",
      "direccion": "Col Kennedy Calle Del Comercio",
      "latitud": "14.0694089",
      "longitud": "-87.175945"
    },
    {
      "pais": "Honduras",
      "departamento": "Choluteca",
      "ciudad": "Colonia 9 de Enero",
      "nombre": "Bodega Mabel",
      "direccion": "Barrio la terminal,al pasar parqueo de los buses",
      "latitud": "13.3064584",
      "longitud": "-87.1818208"
    },
    {
      "pais": "Honduras",
      "departamento": "Olancho",
      "ciudad": "Juticalpa",
      "nombre": "Pulp. La Caseta",
      "direccion": "Col. El recreo,Calle Principal",
      "latitud": "14.659672",
      "longitud": "-86.237102"
    },
    {
      "pais": "Honduras",
      "departamento": "Comayagua",
      "ciudad": "Siguatepeque",
      "nombre": "Pulperia Nathdaely",
      "direccion": "Aldea aguas del padre Calle principal, Siguatepeque",
      "latitud": "14.6176459",
      "longitud": "-87.8892956"
    },
    {
      "pais": "Honduras",
      "departamento": "Valle",
      "ciudad": "Puerto Grande",
      "nombre": "Pulpería Misamaria",
      "direccion": "Calle Hacia Iglesia Católica",
      "latitud": "13.3710014",
      "longitud": "-87.6419853"
    },
    {
      "pais": "Honduras",
      "departamento": "Intibucá",
      "ciudad": "La Esperanza",
      "nombre": "Pul.El Cavario",
      "direccion": "CALLE HACIA LA CIRCUVALACION",
      "latitud": "14.309725",
      "longitud": "-88.186157"
    },
    {
      "pais": "Honduras",
      "departamento": "El Paraíso",
      "ciudad": "Danlí",
      "nombre": "Pulperia San Antonio",
      "direccion": "Barrio Gualiqueme",
      "latitud": "14.0287462",
      "longitud": "-86.578658"
    },
    {
      "pais": "Honduras",
      "departamento": "Olancho",
      "ciudad": "Catacamas",
      "nombre": "Pulperia Guanaja",
      "direccion": "Aldea Guanaja, Talgua",
      "latitud": "14.8718786",
      "longitud": "-85.8555453"
    },
    {
      "pais": "Honduras",
      "departamento": "Intibucá",
      "ciudad": "Yamaranguila",
      "nombre": "Pul.San Antonio",
      "direccion": "CALLE HACIA LAS GRADAS DE LA GRUTA",
      "latitud": "14.2834929",
      "longitud": "-88.2428326"
    },
    {
      "pais": "Honduras",
      "departamento": "Valle",
      "ciudad": "Nacaome",
      "nombre": "Pulpería Elena",
      "direccion": "Calle La Rotaría Con Tigo A La Departamental",
      "latitud": "13.5392501",
      "longitud": "-87.4833518"
    },
    {
      "pais": "Honduras",
      "departamento": "Valle",
      "ciudad": "El Guayabo",
      "nombre": "market lemalils",
      "direccion": "Calle panamericana, Frente recidencial san lorenzo",
      "latitud": "13.5054096",
      "longitud": "-87.4416935"
    },
    {
      "pais": "Honduras",
      "departamento": "Valle",
      "ciudad": "Santa Lucia",
      "nombre": "Variedades La Arada",
      "direccion": "Aldea la arada",
      "latitud": "13.5859341",
      "longitud": "-87.6915926"
    },
    {
      "pais": "Honduras",
      "departamento": "Olancho",
      "ciudad": "Catacamas",
      "nombre": "Pul Tito",
      "direccion": "Aldea Campamento Viejo",
      "latitud": "14.825916",
      "longitud": "-85.833038"
    },
    {
      "pais": "Honduras",
      "departamento": "Valle",
      "ciudad": "Las Lajas",
      "nombre": "Pulperia Juarez",
      "direccion": "Aldea las lajas",
      "latitud": "13.589836",
      "longitud": "-87.7404673"
    },
    {
      "pais": "Honduras",
      "departamento": "Francisco Morazán",
      "ciudad": "Santa Ana",
      "nombre": "Mercadito Elias",
      "direccion": "Nueva Arcadia carretera al sur",
      "latitud": "13.9170404",
      "longitud": "-87.2388659"
    },
    {
      "pais": "Honduras",
      "departamento": "El Paraíso",
      "ciudad": "Guadalajara",
      "nombre": "Abarroteria Casa Blanca",
      "direccion": "Ojo de Agua",
      "latitud": "14.1032046",
      "longitud": "-86.9186301"
    },
    {
      "pais": "Honduras",
      "departamento": "Olancho",
      "ciudad": "San Francisco de la Paz",
      "nombre": "Pulperia Joshua",
      "direccion": "Aldea el pedregal",
      "latitud": "14.8585013",
      "longitud": "-86.157074"
    },
    {
      "pais": "Honduras",
      "departamento": "Olancho",
      "ciudad": "San Esteban",
      "nombre": "Pulperia Yessica",
      "direccion": "Barrio el cementerio",
      "latitud": "15.2101568",
      "longitud": "-85.774184"
    },
    {
      "pais": "Honduras",
      "departamento": "El Paraíso",
      "ciudad": "Los Trozos",
      "nombre": "Pulperia Emanuel Jiret",
      "direccion": "Villa Santa",
      "latitud": "14.1980016",
      "longitud": "-86.303054"
    },
    {
      "pais": "Honduras",
      "departamento": "Comayagua",
      "ciudad": "San Sebastián",
      "nombre": "Pulpería rigo",
      "direccion": "Calle Principal",
      "latitud": "14.2443708",
      "longitud": "-87.6387814"
    },
    {
      "pais": "Honduras",
      "departamento": "El Paraíso",
      "ciudad": "El Paraíso",
      "nombre": "Pulperia Suyapa",
      "direccion": "Barrio altmira",
      "latitud": "13.8685304",
      "longitud": "-86.5536061"
    },
    {
      "pais": "Honduras",
      "departamento": "Comayagua",
      "ciudad": "Brisas de Altamira",
      "nombre": "Mercadito los Almendros",
      "direccion": "Calle al volcan",
      "latitud": "14.4544524",
      "longitud": "-87.6271287"
    },
    {
      "pais": "Honduras",
      "departamento": "Francisco Morazán",
      "ciudad": "El Tizatillo",
      "nombre": "Mercadito Foresta",
      "direccion": "Residencial Villa Foresta",
      "latitud": "13.9978945",
      "longitud": "-87.2017863"
    },
    {
      "pais": "Honduras",
      "departamento": "Choluteca",
      "ciudad": "Barrio Santa Lucia",
      "nombre": "Mercadito Sam Sam",
      "direccion": "Barrio Santa Lucia, Segunda cuadra al oeste del parque",
      "latitud": "13.2877295",
      "longitud": "-87.1987508"
    },
    {
      "pais": "Honduras",
      "departamento": "Choluteca",
      "ciudad": "El Tambor",
      "nombre": "Pulperia Rosa",
      "direccion": "Tambor",
      "latitud": "13.3773483",
      "longitud": "-87.34184"
    },
    {
      "pais": "Honduras",
      "departamento": "Olancho",
      "ciudad": "La Empalizada",
      "nombre": "Pulperia Irene",
      "direccion": "ALDEA LA EMPALIZADA",
      "latitud": "14.6510359",
      "longitud": "-86.1573379"
    },
    {
      "pais": "Honduras",
      "departamento": "Valle",
      "ciudad": "San Lorenzo",
      "nombre": "Puleria Doña Nina",
      "direccion": "calle principal contiguo escuela Rey alf",
      "latitud": "13.4376422",
      "longitud": "-87.451021"
    },
    {
      "pais": "Honduras",
      "departamento": "Comayagua",
      "ciudad": "El Rosario",
      "nombre": "Pulperia Genesis",
      "direccion": "CALLE DEL CENTRO HACIA LA ESCUELA",
      "latitud": "14.5191807",
      "longitud": "-87.8239238"
    },
    {
      "pais": "Honduras",
      "departamento": "Valle",
      "ciudad": "Desvio El Transito",
      "nombre": "Pulpería Kenia",
      "direccion": "Aldea las lajas",
      "latitud": "13.5388517",
      "longitud": "-87.601725"
    },
    {
      "pais": "Honduras",
      "departamento": "El Paraíso",
      "ciudad": "Danlí",
      "nombre": "Bodeguita Isela",
      "direccion": "El Arenal",
      "latitud": "14.01948652",
      "longitud": "-86.62022124"
    },
    {
      "pais": "Honduras",
      "departamento": "Francisco Morazán",
      "ciudad": "Tegucigalpa",
      "nombre": "Pulperia Galo",
      "direccion": "Colonia 30 De Noviembre",
      "latitud": "14.10113333",
      "longitud": "-87.15746333"
    },
    {
      "pais": "Honduras",
      "departamento": "Olancho",
      "ciudad": "La Unión",
      "nombre": "Tienda Tita",
      "direccion": "Barrio Areas Verdes",
      "latitud": "15.0215664",
      "longitud": "-86.7098185"
    },
    {
      "pais": "Honduras",
      "departamento": "El Paraíso",
      "ciudad": "El Obraje",
      "nombre": "Pul Cristian",
      "direccion": "Obraje",
      "latitud": "14.004707",
      "longitud": "-86.431973"
    },
    {
      "pais": "Honduras",
      "departamento": "Olancho",
      "ciudad": "Nueva Choluteca",
      "nombre": "Pulperia Nuevo Amanecer",
      "direccion": "Nueva Choluteca",
      "latitud": "14.32070522",
      "longitud": "-85.93248404"
    },
    {
      "pais": "Honduras",
      "departamento": "El Paraíso",
      "ciudad": "Danlí",
      "nombre": "Mercadito Deplast",
      "direccion": "Barrio La Reforma",
      "latitud": "14.0407699",
      "longitud": "-86.570322"
    },
    {
      "pais": "Honduras",
      "departamento": "El Paraíso",
      "ciudad": "El Matazano",
      "nombre": "Pulp. Chaves",
      "direccion": "Matazano",
      "latitud": "14.0249189",
      "longitud": "-86.3294083"
    },
    {
      "pais": "Honduras",
      "departamento": "El Paraíso",
      "ciudad": "Danlí",
      "nombre": "Pulp. Adan",
      "direccion": "Colonia Gracias a Dios",
      "latitud": "14.0096776",
      "longitud": "-86.58243"
    },
    {
      "pais": "Honduras",
      "departamento": "Choluteca",
      "ciudad": "San Antonio de Flores",
      "nombre": "Pulperia Jireth",
      "direccion": "Calle principal San antonio flores",
      "latitud": "13.668026",
      "longitud": "-87.3595083"
    },
    {
      "pais": "Honduras",
      "departamento": "Olancho",
      "ciudad": "Guarizama",
      "nombre": "Minisuper Jaret",
      "direccion": "Barrio La plaza",
      "latitud": "14.9132898",
      "longitud": "-86.3045887"
    },
    {
      "pais": "Honduras",
      "departamento": "Choluteca",
      "ciudad": "San Marcos de Colón",
      "nombre": "Minimarket La Economía Familiar",
      "direccion": "salida a duyusupo, una cuadra al sur de agrotoro",
      "latitud": "13.4323633",
      "longitud": "-86.8081821"
    },
    {
      "pais": "Honduras",
      "departamento": "Olancho",
      "ciudad": "Catacamas",
      "nombre": "Pulpería Hermana Ana",
      "direccion": "Barrio Zunilapa",
      "latitud": "14.8565367",
      "longitud": "-85.890235"
    },
    {
      "pais": "Honduras",
      "departamento": "Choluteca",
      "ciudad": "Guasaule",
      "nombre": "Pulpería Yeimi",
      "direccion": "calle principal,Contiguo agropecuaria la perla",
      "latitud": "13.0633298",
      "longitud": "-86.9600122"
    },
    {
      "pais": "Honduras",
      "departamento": "Choluteca",
      "ciudad": "Cerco de Piedra",
      "nombre": "Pulp. La Bendicion",
      "direccion": "calle principal a san marcos de colon frente a Mercadito isis",
      "latitud": "13.3697614",
      "longitud": "-87.0314056"
    },
    {
      "pais": "Honduras",
      "departamento": "Valle",
      "ciudad": "Jícaro Galán",
      "nombre": "Pulpería La Bendición",
      "direccion": "Calle panamericana hacia Teguscigalpa",
      "latitud": "13.5316063",
      "longitud": "-87.4377067"
    },
    {
      "pais": "Honduras",
      "departamento": "Comayagua",
      "ciudad": "Siguatepeque",
      "nombre": "Pulp Gisela",
      "direccion": "CARRETERA PRINCIPAL DE SIGUATEPEQUE",
      "latitud": "14.6617717",
      "longitud": "-87.8541167"
    },
    {
      "pais": "Honduras",
      "departamento": "Olancho",
      "ciudad": "Culuco",
      "nombre": "Pul Fanny",
      "direccion": "Aldea El culuco",
      "latitud": "15.104488",
      "longitud": "-85.845524"
    },
    {
      "pais": "Honduras",
      "departamento": "Comayagua",
      "ciudad": "El Sauce",
      "nombre": "Inversiones Gonzales",
      "direccion": "Calle principal frente al parquesito,",
      "latitud": "14.5409785",
      "longitud": "-87.6677631"
    },
    {
      "pais": "Honduras",
      "departamento": "Choluteca",
      "ciudad": "Las Piletas",
      "nombre": "Pulperia Monica",
      "direccion": "colonia Cholumar En la Primera entrada",
      "latitud": "13.2905599",
      "longitud": "-87.2653214"
    },
    {
      "pais": "Honduras",
      "departamento": "Comayagua",
      "ciudad": "Lejamaní",
      "nombre": "Pulperia kimberly",
      "direccion": "Calle Principal",
      "latitud": "14.36609108",
      "longitud": "-87.70392079"
    },
    {
      "pais": "Honduras",
      "departamento": "Choluteca",
      "ciudad": "Agua Caliente de Lina",
      "nombre": "Invernes Paz Las 24 Horas",
      "direccion": "calle principal frente al campo de futbol",
      "latitud": "13.4775153",
      "longitud": "-87.2345805"
    },
    {
      "pais": "Honduras",
      "departamento": "Valle",
      "ciudad": "Las Lajas",
      "nombre": "Pulpería Cruz Espinal",
      "direccion": "el zapote",
      "latitud": "13.5681925",
      "longitud": "-87.7723217"
    },
    {
      "pais": "Honduras",
      "departamento": "Choluteca",
      "ciudad": "Choluteca",
      "nombre": "Variedades Gonzalez",
      "direccion": "Choluteca Aldea Tapatoca  Calle principal",
      "latitud": "13.4789104",
      "longitud": "-87.3181997"
    },
    {
      "pais": "Honduras",
      "departamento": "Olancho",
      "ciudad": "Juticalpa",
      "nombre": "Pulpería Dos Hermanos",
      "direccion": "Colonia Villa Santa",
      "latitud": "14.6590569",
      "longitud": "-86.1899494"
    },
    {
      "pais": "Honduras",
      "departamento": "Valle",
      "ciudad": "San Lorenzo",
      "nombre": "pulpería su amiga",
      "direccion": "Cll Prin ,frente a iglesia católica",
      "latitud": "13.4530968",
      "longitud": "-87.3927001"
    },
    {
      "pais": "Honduras",
      "departamento": "Intibucá",
      "ciudad": "Magdalena",
      "nombre": "Pulpería Y Y G",
      "direccion": "Cll Prin,Frente Esc Ramón Rosa",
      "latitud": "13.9326583",
      "longitud": "-88.3746366"
    },
    {
      "pais": "Honduras",
      "departamento": "Valle",
      "ciudad": "Nacaome",
      "nombre": "Pul. Gloria",
      "direccion": "B san jose",
      "latitud": "13.5353596",
      "longitud": "-87.4867981"
    },
    {
      "pais": "Honduras",
      "departamento": "Valle",
      "ciudad": "San Lorenzo",
      "nombre": "Pulperia M Y D",
      "direccion": "clle ppal,3 cdras al sur de pulp. Milagro",
      "latitud": "13.4291113",
      "longitud": "-87.4627418"
    },
    {
      "pais": "Honduras",
      "departamento": "El Paraíso",
      "ciudad": "Ojo de Agua",
      "nombre": "Variedades Joseth",
      "direccion": "Ojo de Agua",
      "latitud": "14.0505279",
      "longitud": "-86.8702932"
    },
    {
      "pais": "Honduras",
      "departamento": "Francisco Morazán",
      "ciudad": "Tegucigalpa",
      "nombre": "Pulperia Katy",
      "direccion": "Tegucigalpa",
      "latitud": "14.1024416",
      "longitud": "-87.2456185"
    },
    {
      "pais": "Honduras",
      "departamento": "Comayagua",
      "ciudad": "Colonia San Miguel",
      "nombre": "Mercadito Colonial",
      "direccion": "Col. Prados calle principal",
      "latitud": "14.433996",
      "longitud": "-87.642956"
    },
    {
      "pais": "Honduras",
      "departamento": "Francisco Morazán",
      "ciudad": "Guaimaca",
      "nombre": "Abarroteria Fabi",
      "direccion": "Tegucigalpa",
      "latitud": "14.5546815",
      "longitud": "-86.8335373"
    },
    {
      "pais": "Honduras",
      "departamento": "Francisco Morazán",
      "ciudad": "Comayagüela",
      "nombre": "Pulp. Aurora",
      "direccion": "Tegucigalpa",
      "latitud": "14.1408939",
      "longitud": "-87.232951"
    },
    {
      "pais": "Honduras",
      "departamento": "Francisco Morazán",
      "ciudad": "Carrizal",
      "nombre": "Pulp. Mia",
      "direccion": "Tegucigalpa",
      "latitud": "14.1078381",
      "longitud": "-87.2413456"
    },
    {
      "pais": "Honduras",
      "departamento": "Francisco Morazán",
      "ciudad": "Carrizal",
      "nombre": "Pulp. Mariana",
      "direccion": "Tegucigalpa",
      "latitud": "14.1127089",
      "longitud": "-87.2479144"
    },
    {
      "pais": "Honduras",
      "departamento": "Francisco Morazán",
      "ciudad": "Tegucigalpa",
      "nombre": "Pulpería Yami",
      "direccion": "La Era calle principal",
      "latitud": "14.0948381",
      "longitud": "-87.1499385"
    },
    {
      "pais": "Honduras",
      "departamento": "Francisco Morazán",
      "ciudad": "Colonia La Era",
      "nombre": "Pulperia La Era",
      "direccion": "Calle Principal Contiguo A Expendio El Pantanal",
      "latitud": "14.0965541",
      "longitud": "-87.1524727"
    },
    {
      "pais": "Honduras",
      "departamento": "Francisco Morazán",
      "ciudad": "Tegucigalpa",
      "nombre": "Pul Jessy",
      "direccion": "Tegucigalpa Colonia prados uniovers",
      "latitud": "14.085631",
      "longitud": "-87.154992"
    },
    {
      "pais": "Honduras",
      "departamento": "Francisco Morazán",
      "ciudad": "Tegucigalpa",
      "nombre": "Pulperia Salinas",
      "direccion": "Tegucigalpa",
      "latitud": "14.1246988",
      "longitud": "-87.2065578"
    },
    {
      "pais": "Honduras",
      "departamento": "Comayagua",
      "ciudad": "Ajuterique",
      "nombre": "Pulperia Los Angeles",
      "direccion": "Calle al Playon",
      "latitud": "14.3835576",
      "longitud": "-87.7134148"
    },
    {
      "pais": "Honduras",
      "departamento": "Valle",
      "ciudad": "Langue",
      "nombre": "Pulperia Lola",
      "direccion": "El Centro, Frente iglesia Hetsemani",
      "latitud": "13.6208834",
      "longitud": "-87.6518929"
    },
    {
      "pais": "Honduras",
      "departamento": "Comayagua",
      "ciudad": "El Volcan",
      "nombre": "Mercadito El Volcán",
      "direccion": "Aldea El Volcán",
      "latitud": "14.4378067",
      "longitud": "-87.5847717"
    },
    {
      "pais": "Honduras",
      "departamento": "Valle",
      "ciudad": "El Pedrerito",
      "nombre": "Super Sol",
      "direccion": "Calle Principal hacia coyolito",
      "latitud": "13.4240359",
      "longitud": "-87.5439006"
    },
    {
      "pais": "Honduras",
      "departamento": "Comayagua",
      "ciudad": "Siguatepeque",
      "nombre": "Pulp. Charley",
      "direccion": "DESVIO AL HOSPITAL EVANGELICO",
      "latitud": "14.5975722",
      "longitud": "-87.8428976"
    },
    {
      "pais": "Honduras",
      "departamento": "Francisco Morazán",
      "ciudad": "Aldea Santa Rosa",
      "nombre": "Pulperia Santa Fe",
      "direccion": "Aldea Santa Rosa calle principal",
      "latitud": "14.0210379",
      "longitud": "-87.1880592"
    },
    {
      "pais": "Honduras",
      "departamento": "Francisco Morazán",
      "ciudad": "Colonia Altos de Loarque",
      "nombre": "Pulperia Ebenezer",
      "direccion": "Altos Del Loarque calle Principal,",
      "latitud": "14.0396254",
      "longitud": "-87.2176486"
    },
    {
      "pais": "Honduras",
      "departamento": "Choluteca",
      "ciudad": "Pespire",
      "nombre": "Pulperia Heyclamar",
      "direccion": "Contiguo a centro medico layfer",
      "latitud": "13.587501",
      "longitud": "-87.358182"
    },
    {
      "pais": "Honduras",
      "departamento": "Comayagua",
      "ciudad": "Siguatepeque",
      "nombre": "Inversiones Vela S De Cv",
      "direccion": "B° Macarulla,Cll 21 Agosto contigio a Hotel Sweet Confort",
      "latitud": "14.59653737",
      "longitud": "-87.85003345"
    },
    {
      "pais": "Honduras",
      "departamento": "Francisco Morazán",
      "ciudad": "Tegucigalpa",
      "nombre": "La Economica # 5",
      "direccion": "Colonia El Hato de en medio Calle princi",
      "latitud": "14.0701866",
      "longitud": "-87.1678205"
    },
    {
      "pais": "Honduras",
      "departamento": "Intibucá",
      "ciudad": "Camasca",
      "nombre": "Minisuper Vale",
      "direccion": "CALLE PRINCIPAL DE PAIMENTO HACE CAMASCA",
      "latitud": "14.002185",
      "longitud": "-88.35224"
    },
    {
      "pais": "Honduras",
      "departamento": "Choluteca",
      "ciudad": "Namasigüe",
      "nombre": "Pulpería Junior",
      "direccion": "la cabaña , cerca de la panamericana",
      "latitud": "13.1979262",
      "longitud": "-87.15407"
    },
    {
      "pais": "Honduras",
      "departamento": "Olancho",
      "ciudad": "San Nicolás",
      "nombre": "Pul Marifer",
      "direccion": "Aldea las llaves",
      "latitud": "14.5263246",
      "longitud": "-86.3336241"
    },
    {
      "pais": "Honduras",
      "departamento": "Olancho",
      "ciudad": "Mangulile",
      "nombre": "Pulperia Joan",
      "direccion": "Bo el centro",
      "latitud": "15.0370489",
      "longitud": "-86.8172843"
    },
    {
      "pais": "Honduras",
      "departamento": "Francisco Morazán",
      "ciudad": "Tegucigalpa",
      "nombre": "Pulria Claudia",
      "direccion": "Colonia Las Palmas ultima calle",
      "latitud": "14.060485",
      "longitud": "-87.1921472"
    },
    {
      "pais": "Honduras",
      "departamento": "Francisco Morazán",
      "ciudad": "Colonia San Francisco",
      "nombre": "Pulperia Odalys",
      "direccion": "Colonia El Retiro, 3ra calle, casa 2776",
      "latitud": "14.0786013",
      "longitud": "-87.2286567"
    },
    {
      "pais": "Honduras",
      "departamento": "La Paz",
      "ciudad": "Santiago de Puringla",
      "nombre": "Pul sinai",
      "direccion": "calle Principal",
      "latitud": "14.35810268",
      "longitud": "-87.90624317"
    },
    {
      "pais": "Honduras",
      "departamento": "Olancho",
      "ciudad": "Catacamas",
      "nombre": "Pulperia Carolina",
      "direccion": "Barrio Las Lomas",
      "latitud": "14.8502527",
      "longitud": "-85.8721314"
    },
    {
      "pais": "Honduras",
      "departamento": "Comayagua",
      "ciudad": "Flores",
      "nombre": "pulperia MELVITO",
      "direccion": "Barrio el Campo",
      "latitud": "14.2963931",
      "longitud": "-87.5679263"
    },
    {
      "pais": "Honduras",
      "departamento": "Choluteca",
      "ciudad": "Agua Caliente de Lina",
      "nombre": "Pulpería Yeslibeth",
      "direccion": "calle principal agua caliente linaca",
      "latitud": "13.434665",
      "longitud": "-87.232615"
    },
    {
      "pais": "Honduras",
      "departamento": "El Paraíso",
      "ciudad": "Oropolí",
      "nombre": "mercadito espinaza",
      "direccion": "Entrda del boulevar",
      "latitud": "13.8233868",
      "longitud": "-86.8183643"
    },
    {
      "pais": "Honduras",
      "departamento": "Choluteca",
      "ciudad": "Barrio El Centro",
      "nombre": "Inversiones Aguilera",
      "direccion": "Barrio el centro, avenida principal",
      "latitud": "13.3060172",
      "longitud": "-87.1912643"
    },
    {
      "pais": "Honduras",
      "departamento": "Francisco Morazán",
      "ciudad": "Las Torres",
      "nombre": "Mercadito Las Cascadas",
      "direccion": "Colonia  America Calle Principal",
      "latitud": "14.0651989",
      "longitud": "-87.2280659"
    },
    {
      "pais": "Honduras",
      "departamento": "Francisco Morazán",
      "ciudad": "Tegucigalpa",
      "nombre": "Pul La Favorita",
      "direccion": "Colonia carrizal # 2 calle principal",
      "latitud": "14.1006087",
      "longitud": "-87.2436923"
    },
    {
      "pais": "Honduras",
      "departamento": "El Paraíso",
      "ciudad": "Alauca",
      "nombre": "Pul Areli",
      "direccion": "Las Manos",
      "latitud": "13.8001473",
      "longitud": "-86.5794472"
    },
    {
      "pais": "Honduras",
      "departamento": "Choluteca",
      "ciudad": "San Jeronimo",
      "nombre": "Inversiones Lindo Castro",
      "direccion": "Carrtera principal  de san jeronimo , frente a la entrada de san jeronimo",
      "latitud": "13.1788966",
      "longitud": "-87.1350669"
    },
    {
      "pais": "Honduras",
      "departamento": "Comayagua",
      "ciudad": "Potrerillos",
      "nombre": "Pulp. Mi Esfuerzo",
      "direccion": "CENTRO DE POTRERILLO POR EL CAMPO",
      "latitud": "14.5534315",
      "longitud": "-87.8775834"
    },
    {
      "pais": "Honduras",
      "departamento": "Choluteca",
      "ciudad": "Barrio Santa Rosa de Sampile",
      "nombre": "Pulperia Maria",
      "direccion": "Barrio san pile ,",
      "latitud": "13.2850294",
      "longitud": "-87.1755257"
    },
    {
      "pais": "Honduras",
      "departamento": "Choluteca",
      "ciudad": "San Agustín",
      "nombre": "Pulperia Yasnely",
      "direccion": "san augustin, calle principal",
      "latitud": "13.197915",
      "longitud": "-87.1191589"
    },
    {
      "pais": "Honduras",
      "departamento": "Francisco Morazán",
      "ciudad": "Tegucigalpa",
      "nombre": "Bodeguita Rigo",
      "direccion": "col.montes de bendicion,bl-4,c-1,",
      "latitud": "14.0765783",
      "longitud": "-87.24328"
    },
    {
      "pais": "Honduras",
      "departamento": "Choluteca",
      "ciudad": "San Jerónimo",
      "nombre": "Pulperia Dos Hermanos",
      "direccion": "Namasigue,nuevo esfuerzo",
      "latitud": "13.204425",
      "longitud": "-87.1402467"
    },
    {
      "pais": "Honduras",
      "departamento": "Francisco Morazán",
      "ciudad": "Colonia Loarque",
      "nombre": "Mercado Suyapa",
      "direccion": "Colonia Loarque calle principal",
      "latitud": "14.0422791",
      "longitud": "-87.2087788"
    },
    {
      "pais": "Honduras",
      "departamento": "Comayagua",
      "ciudad": "Siguatepeque",
      "nombre": "Pulpería Isis",
      "direccion": "2 CUADRA ABAJO DEL PARNAZO",
      "latitud": "14.5966633",
      "longitud": "-87.82265"
    },
    {
      "pais": "Honduras",
      "departamento": "Intibucá",
      "ciudad": "La Esperanza",
      "nombre": "Pulperia Jose",
      "direccion": "Bo Lempira Calle principal, desvio Chiligatoro",
      "latitud": "14.3107025",
      "longitud": "-88.1718296"
    },
    {
      "pais": "Honduras",
      "departamento": "Choluteca",
      "ciudad": "Colonia Monseñor Marcelo Gerin",
      "nombre": "Pulp. Mi Bendicion",
      "direccion": "barrio campo luna",
      "latitud": "13.2923252",
      "longitud": "-87.1853463"
    },
    {
      "pais": "Honduras",
      "departamento": "Comayagua",
      "ciudad": "Las Lajas",
      "nombre": "Comercial La Confianza",
      "direccion": "Calle Principal",
      "latitud": "14.89564669",
      "longitud": "-87.58151148"
    },
    {
      "pais": "Honduras",
      "departamento": "Francisco Morazán",
      "ciudad": "Colonia La Esperanza",
      "nombre": "Pulp Lizeth",
      "direccion": "Modesto Rodas",
      "latitud": "14.0971007",
      "longitud": "-87.1720762"
    },
    {
      "pais": "Honduras",
      "departamento": "Choluteca",
      "ciudad": "Barrio La Cruz",
      "nombre": "Lukas Market",
      "direccion": "Barrio tamarindo blvd principal , llegando casi al final, fachada de taqueritos",
      "latitud": "13.3091761",
      "longitud": "-87.1887983"
    },
    {
      "pais": "Honduras",
      "departamento": "Comayagua",
      "ciudad": "El Carrizal",
      "nombre": "Pulpería Arnol",
      "direccion": "Col.los militares entrada principal",
      "latitud": "14.6727872",
      "longitud": "-87.9421701"
    },
    {
      "pais": "Honduras",
      "departamento": "Intibucá",
      "ciudad": "San Isidro",
      "nombre": "Pulp. La Economica",
      "direccion": "DESPUES DEL PUENTE ENTRANDO A SAN GERONIMO",
      "latitud": "14.519323",
      "longitud": "-88.09781"
    },
    {
      "pais": "Honduras",
      "departamento": "Francisco Morazán",
      "ciudad": "Ojojona",
      "nombre": "Transporte Varela Cruz ( Mto el Cruce)",
      "direccion": "Aldea El Cruce carretera al sur",
      "latitud": "13.9330967",
      "longitud": "-87.29198"
    },
    {
      "pais": "Honduras",
      "departamento": "Comayagua",
      "ciudad": "Lo De Reina",
      "nombre": "Mercadito La Fe",
      "direccion": "Calle Principal",
      "latitud": "14.4209481",
      "longitud": "-87.6999949"
    },
    {
      "pais": "Honduras",
      "departamento": "Francisco Morazán",
      "ciudad": "Zambrano",
      "nombre": "Pul Alejandrina",
      "direccion": "Tegucigalpa",
      "latitud": "14.2919308",
      "longitud": "-87.3793761"
    },
    {
      "pais": "Honduras",
      "departamento": "El Paraíso",
      "ciudad": "Calpules",
      "nombre": "Pulp. Nora",
      "direccion": "Calpules",
      "latitud": "14.0996056",
      "longitud": "-86.3638777"
    },
    {
      "pais": "Honduras",
      "departamento": "El Paraíso",
      "ciudad": "Las Crucitas",
      "nombre": "Pulp Alexito",
      "direccion": "Las Crucitas",
      "latitud": "14.064674",
      "longitud": "-86.725904"
    },
    {
      "pais": "Honduras",
      "departamento": "Comayagua",
      "ciudad": "San Antonio de la Cuesta",
      "nombre": "Super Market Seven",
      "direccion": "Orilla de pavimento calle a la libertad",
      "latitud": "14.6402973",
      "longitud": "-87.6039249"
    },
    {
      "pais": "Honduras",
      "departamento": "Choluteca",
      "ciudad": "Pespire",
      "nombre": "Puperia Oneyda Flore",
      "direccion": "Entrada a la represa",
      "latitud": "13.58414",
      "longitud": "-87.3569458"
    },
    {
      "pais": "Honduras",
      "departamento": "Comayagua",
      "ciudad": "Esquías",
      "nombre": "Pulp San Antonio",
      "direccion": "Esquias",
      "latitud": "14.7381566",
      "longitud": "-87.3661121"
    },
    {
      "pais": "Honduras",
      "departamento": "Intibucá",
      "ciudad": "San Juan",
      "nombre": "Pulp. Mi Bendicion",
      "direccion": "Bo. El triangulo San Juan Intibuca co",
      "latitud": "14.3997524",
      "longitud": "-88.4196083"
    },
    {
      "pais": "Honduras",
      "departamento": "Intibucá",
      "ciudad": "Colomoncagua",
      "nombre": "Abarroteria  Emeli",
      "direccion": "Colomoncagua, San Sebastian",
      "latitud": "13.9625846",
      "longitud": "-88.2756901"
    },
    {
      "pais": "Honduras",
      "departamento": "Intibucá",
      "ciudad": "Aldea Laguna",
      "nombre": "Pulperia Nelson",
      "direccion": "Cll Prin A San Juan",
      "latitud": "14.3213916",
      "longitud": "-88.3577183"
    },
    {
      "pais": "Honduras",
      "departamento": "El Paraíso",
      "ciudad": "Danlí",
      "nombre": "Pulperia Lizeth",
      "direccion": "Colonia Cofradia",
      "latitud": "14.0336411",
      "longitud": "-86.5679778"
    },
    {
      "pais": "Honduras",
      "departamento": "El Paraíso",
      "ciudad": "Danlí",
      "nombre": "Pulp. Alejandra",
      "direccion": "Colonia San Francisco",
      "latitud": "14.0358188",
      "longitud": "-86.5658881"
    },
    {
      "pais": "Honduras",
      "departamento": "Francisco Morazán",
      "ciudad": "Valle de Ángeles",
      "nombre": "Mini Mercadito La Entrada",
      "direccion": "3 Rosas",
      "latitud": "14.1372646",
      "longitud": "-87.0513022"
    },
    {
      "pais": "Honduras",
      "departamento": "Valle",
      "ciudad": "Agua Fría",
      "nombre": "súper market enmanuel",
      "direccion": "Entreda principal agua fria",
      "latitud": "13.4768017",
      "longitud": "-87.5532754"
    },
    {
      "pais": "Honduras",
      "departamento": "Olancho",
      "ciudad": "Las Tres Ceibas",
      "nombre": "Pulperia Dieguito",
      "direccion": "aldea San marcos de jutiquile",
      "latitud": "14.7077682",
      "longitud": "-86.0779061"
    },
    {
      "pais": "Honduras",
      "departamento": "Francisco Morazán",
      "ciudad": "Distrito Central",
      "nombre": "Pulperia Acosta",
      "direccion": "Colonia Altos de Santa Rosa Calle principal",
      "latitud": "14.0095399",
      "longitud": "-87.1876473"
    },
    {
      "pais": "Honduras",
      "departamento": "Comayagua",
      "ciudad": "Siguatepeque",
      "nombre": "Mercadito Almendros",
      "direccion": "Esquina opuesta a Pollos Sigua, calle al estadio",
      "latitud": "14.5915819",
      "longitud": "-87.8422572"
    },
    {
      "pais": "Honduras",
      "departamento": "Francisco Morazán",
      "ciudad": "Barrio Los Profesores",
      "nombre": "Pulperia 2 Hermanos",
      "direccion": "Col. San Martin, calle princuipal",
      "latitud": "14.1038897",
      "longitud": "-87.2180325"
    },
    {
      "pais": "Honduras",
      "departamento": "El Paraíso",
      "ciudad": "Danlí",
      "nombre": "Pulperia Eureka",
      "direccion": "Barrio pueblo nuevo",
      "latitud": "14.0341455",
      "longitud": "-86.5724265"
    },
    {
      "pais": "Honduras",
      "departamento": "Choluteca",
      "ciudad": "Barrio Los Graneros",
      "nombre": "Pulp. Lila",
      "direccion": "Barrio La Libertad calle principal",
      "latitud": "13.2997756",
      "longitud": "-87.1955556"
    },
    {
      "pais": "Honduras",
      "departamento": "Francisco Morazán",
      "ciudad": "Barrio El Centavo",
      "nombre": "Pulperia Guayo",
      "direccion": "Bo. Concepcion, Esquina Opuesta A Aire Frio",
      "latitud": "14.1001901",
      "longitud": "-87.2106924"
    },
    {
      "pais": "Honduras",
      "departamento": "Francisco Morazán",
      "ciudad": "Modesto Rodas",
      "nombre": "Mini Mercadito Nathaly",
      "direccion": "Col.21 de Octubre Sector # 9 Clle Principal",
      "latitud": "14.1093285",
      "longitud": "-87.1714377"
    },
    {
      "pais": "Honduras",
      "departamento": "Francisco Morazán",
      "ciudad": "Barrio Morazán",
      "nombre": "Mercadito La Fe",
      "direccion": "Bajo semáforo,a cinco casa de Pulpería Brenda",
      "latitud": "14.0996067",
      "longitud": "-87.2021383"
    },
    {
      "pais": "Honduras",
      "departamento": "Francisco Morazán",
      "ciudad": "Colonia 21 de Octubre",
      "nombre": "Lacteos La Blanquita",
      "direccion": "Blvd. Los Proceres Frente Al San Felipe",
      "latitud": "14.1076",
      "longitud": "-87.1721075"
    },
    {
      "pais": "Honduras",
      "departamento": "El Paraíso",
      "ciudad": "Danlí",
      "nombre": "Pulpería La Canchita",
      "direccion": "Colonia La Concepcion",
      "latitud": "14.04688461",
      "longitud": "-86.5769149"
    },
    {
      "pais": "Honduras",
      "departamento": "Francisco Morazán",
      "ciudad": "Comayagüela",
      "nombre": "Pulperia Ale",
      "direccion": "Col. Carrizal N. 2,",
      "latitud": "14.1019313",
      "longitud": "-87.2414617"
    },
    {
      "pais": "Honduras",
      "departamento": "Choluteca",
      "ciudad": "Orocuina",
      "nombre": "Inversions Del Sur",
      "direccion": "calle principal salida a luare y soledad",
      "latitud": "13.4849007",
      "longitud": "-87.1048942"
    },
    {
      "pais": "Honduras",
      "departamento": "Choluteca",
      "ciudad": "El Cacao",
      "nombre": "Pulp.Wendy",
      "direccion": "Yoloron calle principal pasando un campo",
      "latitud": "13.1085017",
      "longitud": "-87.0987333"
    },
    {
      "pais": "Honduras",
      "departamento": "Choluteca",
      "ciudad": "Orocuina",
      "nombre": "Pulp. Alvarez",
      "direccion": "combali, en la calle que va para la salida de santana",
      "latitud": "13.518764",
      "longitud": "-87.127205"
    },
    {
      "pais": "Honduras",
      "departamento": "Choluteca",
      "ciudad": "Namasigüe",
      "nombre": "Pulpería Mendez",
      "direccion": "guameru en la calle principal",
      "latitud": "13.1049337",
      "longitud": "-87.1361887"
    },
    {
      "pais": "Honduras",
      "departamento": "Comayagua",
      "ciudad": "Comayagua",
      "nombre": "Comercial el angel",
      "direccion": "Frente a cementera argos",
      "latitud": "14.515767",
      "longitud": "-87.653754"
    },
    {
      "pais": "Honduras",
      "departamento": "Olancho",
      "ciudad": "Gualaco",
      "nombre": "Pul Jose Carlos",
      "direccion": "B El Colegio , Gualaco",
      "latitud": "15.0246276",
      "longitud": "-86.0664187"
    },
    {
      "pais": "Honduras",
      "departamento": "Francisco Morazán",
      "ciudad": "Cerro Grande Zona 2",
      "nombre": "Tortilleria Molina",
      "direccion": "Cerro Grande #2",
      "latitud": "14.1182873",
      "longitud": "-87.225686"
    },
    {
      "pais": "Honduras",
      "departamento": "Francisco Morazán",
      "ciudad": "Colonia San Luis",
      "nombre": "Mercadito Marcia",
      "direccion": "Colonia la Pradera una cuadra delante de la gasolinera",
      "latitud": "14.0713493",
      "longitud": "-87.214827"
    },
    {
      "pais": "Honduras",
      "departamento": "Olancho",
      "ciudad": "Colonia Poncaya",
      "nombre": "Super Mercadito N&N",
      "direccion": "Aldea Poncaya",
      "latitud": "14.4354729",
      "longitud": "-85.8456122"
    },
    {
      "pais": "Honduras",
      "departamento": "La Paz",
      "ciudad": "Santiago de Puringla",
      "nombre": "Pulpería. Carlos",
      "direccion": "Desvío a santiago de puringla",
      "latitud": "14.342131",
      "longitud": "-87.8910881"
    },
    {
      "pais": "Honduras",
      "departamento": "Choluteca",
      "ciudad": "San Marcos de Colón",
      "nombre": "Mercatodo",
      "direccion": "barrio la esperanza, 1 cuadra al este de ferreteria",
      "latitud": "13.4341381",
      "longitud": "-86.804919"
    },
    {
      "pais": "Honduras",
      "departamento": "Olancho",
      "ciudad": "Catacamas",
      "nombre": "Pulperia Jose Daniel",
      "direccion": "Salida a Dulce Nombre de Culmi",
      "latitud": "14.829389",
      "longitud": "-85.836577"
    },
    {
      "pais": "Honduras",
      "departamento": "Intibucá",
      "ciudad": "San Marcos de la Sierra",
      "nombre": "Pulperia para todos",
      "direccion": "Entrando a la calle RN118",
      "latitud": "14.116208",
      "longitud": "-88.256282"
    },
    {
      "pais": "Honduras",
      "departamento": "Francisco Morazán",
      "ciudad": "Tegucigalpa",
      "nombre": "Pulperia Jesús Mi Salvación",
      "direccion": "Colonia Nueva Jerusalen calle principal",
      "latitud": "14.076826",
      "longitud": "-87.2548406"
    },
    {
      "pais": "Honduras",
      "departamento": "El Paraíso",
      "ciudad": "El Paraíso",
      "nombre": "Pulperia El Rosario",
      "direccion": "Barrio el rosario",
      "latitud": "13.8580412",
      "longitud": "-86.5486657"
    },
    {
      "pais": "Honduras",
      "departamento": "El Paraíso",
      "ciudad": "Danlí",
      "nombre": "Variedades Yoan",
      "direccion": "Colonia Los Robles",
      "latitud": "14.0603804",
      "longitud": "-86.5679026"
    },
    {
      "pais": "Honduras",
      "departamento": "El Paraíso",
      "ciudad": "El Paraíso",
      "nombre": "Pul Alisson",
      "direccion": "Colonia San Juan",
      "latitud": "13.8559033",
      "longitud": "-86.54622"
    },
    {
      "pais": "Honduras",
      "departamento": "Francisco Morazán",
      "ciudad": "Mateo",
      "nombre": "Pulperia Shalon",
      "direccion": "Aldea Mateo calle principal",
      "latitud": "14.07768",
      "longitud": "-87.31769"
    },
    {
      "pais": "Honduras",
      "departamento": "Francisco Morazán",
      "ciudad": "Colonia 14 de Marzo",
      "nombre": "Bodeguita Flores",
      "direccion": "Colonia Calpules Calle principal",
      "latitud": "14.0538",
      "longitud": "-87.2006846"
    },
    {
      "pais": "Honduras",
      "departamento": "Francisco Morazán",
      "ciudad": "Colonia San José del Pedregal",
      "nombre": "Pulp Isis",
      "direccion": "Colonia Sinai segunda calle",
      "latitud": "14.0644178",
      "longitud": "-87.2077963"
    },
    {
      "pais": "Honduras",
      "departamento": "Francisco Morazán",
      "ciudad": "Tegucigalpa",
      "nombre": "Pul. Yami",
      "direccion": "Colonia Estados Unidos calle principal",
      "latitud": "14.1081011",
      "longitud": "-87.1566261"
    },
    {
      "pais": "Honduras",
      "departamento": "Francisco Morazán",
      "ciudad": "Colonia Centroamérica Oeste",
      "nombre": "Pul. Andrea",
      "direccion": "Col. Centro America Oeste",
      "latitud": "14.0903865",
      "longitud": "-87.2419927"
    },
    {
      "pais": "Honduras",
      "departamento": "Comayagua",
      "ciudad": "San Antonio de la Cuesta",
      "nombre": "Inversiones Medina",
      "direccion": "Calle salida al rancho",
      "latitud": "14.6419444",
      "longitud": "-87.5999237"
    },
    {
      "pais": "Honduras",
      "departamento": "Olancho",
      "ciudad": "Juticalpa",
      "nombre": "La Viña #2",
      "direccion": "Boulevar los poetas Juticalpa",
      "latitud": "14.6654489",
      "longitud": "-86.2185334"
    },
    {
      "pais": "Honduras",
      "departamento": "Francisco Morazán",
      "ciudad": "Tegucigalpa",
      "nombre": "Pulperia Bendicion # 2",
      "direccion": "Colonia Arciery Calle principal",
      "latitud": "14.0767379",
      "longitud": "-87.2433929"
    },
    {
      "pais": "Honduras",
      "departamento": "Francisco Morazán",
      "ciudad": "Yaguacire",
      "nombre": "Abarroteria La Multiple",
      "direccion": "Colonia Reyniel Funez calle principal",
      "latitud": "14.0100292",
      "longitud": "-87.2009364"
    },
    {
      "pais": "Honduras",
      "departamento": "Francisco Morazán",
      "ciudad": "Colonia Las Ayestas",
      "nombre": "Pulperia Economia",
      "direccion": "Col. las Mercedes,Calle prin,Frt a la es",
      "latitud": "14.1013846",
      "longitud": "-87.2220546"
    },
    {
      "pais": "Honduras",
      "departamento": "Olancho",
      "ciudad": "CATACAMAS",
      "nombre": "Abarrotería Jose",
      "direccion": "Bo el centro",
      "latitud": "15.083184",
      "longitud": "-85.561646"
    },
    {
      "pais": "Honduras",
      "departamento": "Comayagua",
      "ciudad": "La Soledad",
      "nombre": "R&C",
      "direccion": "Barrio el centro",
      "latitud": "14.809887",
      "longitud": "-87.516806"
    },
    {
      "pais": "Honduras",
      "departamento": "El Paraíso",
      "ciudad": "Santo Domingo",
      "nombre": "Pulperia Salinas",
      "direccion": "santo domingo , soledad frente al parque",
      "latitud": "13.563133",
      "longitud": "-87.15892"
    },
    {
      "pais": "Honduras",
      "departamento": "Choluteca",
      "ciudad": "Barrio San Jorge",
      "nombre": "Pulperia Valeria",
      "direccion": "Bo. Manuel valladares Calle principal",
      "latitud": "13.2813173",
      "longitud": "-87.2046579"
    },
    {
      "pais": "Honduras",
      "departamento": "Choluteca",
      "ciudad": "Buena Vista",
      "nombre": "Centro  Comercial  Buena  Vista",
      "direccion": "Col. Buena vista calle principal",
      "latitud": "13.2547261",
      "longitud": "-87.3955636"
    },
    {
      "pais": "Honduras",
      "departamento": "Francisco Morazán",
      "ciudad": "Santa Lucía",
      "nombre": "Mini Super La Laguna",
      "direccion": "Santa Lucia Barrio El Centro Calle Principal",
      "latitud": "14.1195589",
      "longitud": "-87.1115312"
    },
    {
      "pais": "Honduras",
      "departamento": "Olancho",
      "ciudad": "Sosa",
      "nombre": "Pulperia Isabel",
      "direccion": "Aldea el Encino Siguate",
      "latitud": "14.9046791",
      "longitud": "-85.7958782"
    },
    {
      "pais": "Honduras",
      "departamento": "Francisco Morazán",
      "ciudad": "Torocagua",
      "nombre": "Frutas Sofia",
      "direccion": "Colonia Torocagua calle principal",
      "latitud": "14.097135",
      "longitud": "-87.233123"
    },
    {
      "pais": "Honduras",
      "departamento": "Olancho",
      "ciudad": "Manto",
      "nombre": "Pulperia Briana",
      "direccion": "Manto barrio el centro",
      "latitud": "14.9205637",
      "longitud": "-86.3730731"
    },
    {
      "pais": "Honduras",
      "departamento": "La Paz",
      "ciudad": "San José",
      "nombre": "comercial leonel",
      "direccion": "Calle a Marcala",
      "latitud": "14.209379",
      "longitud": "-87.961784"
    },
    {
      "pais": "Honduras",
      "departamento": "Francisco Morazán",
      "ciudad": "Colonia Hato del Medio",
      "nombre": "Mercadito Super Carne",
      "direccion": "Col Hato Enmedio Calle Ppl",
      "latitud": "14.0742061",
      "longitud": "-87.1731183"
    },
    {
      "pais": "Honduras",
      "departamento": "Comayagua",
      "ciudad": "Siguatepeque",
      "nombre": "La Casa Del Pueblo",
      "direccion": "BOULEVAR FRANCISCO MORAZA",
      "latitud": "14.6045444",
      "longitud": "-87.8307718"
    },
    {
      "pais": "Honduras",
      "departamento": "Francisco Morazán",
      "ciudad": "Las Torres",
      "nombre": "Pulperia La Solucion",
      "direccion": "Predios Del Recreo calle principal",
      "latitud": "14.065177",
      "longitud": "-87.2280087"
    },
    {
      "pais": "Honduras",
      "departamento": "Olancho",
      "ciudad": "Gualaco",
      "nombre": "Mercadito San Geronimo",
      "direccion": "Cll prin entrada a gualaco",
      "latitud": "15.0257923",
      "longitud": "-86.0757381"
    },
    {
      "pais": "Honduras",
      "departamento": "Choluteca",
      "ciudad": "Choluteca",
      "nombre": "Comecial Y Bodega Shadai",
      "direccion": "aldea los colorad,Calle principal tapaire",
      "latitud": "13.3662297",
      "longitud": "-87.1103396"
    },
    {
      "pais": "Honduras",
      "departamento": "Francisco Morazán",
      "ciudad": "Tegucigalpa",
      "nombre": "E Y M",
      "direccion": "Col. Villa Nueva Sector 3 Abajo De Iglesia",
      "latitud": "14.0551342",
      "longitud": "-87.1621721"
    },
    {
      "pais": "Honduras",
      "departamento": "El Paraíso",
      "ciudad": "Cifuentes",
      "nombre": "Pulperia Fanny",
      "direccion": "Cifuentes calle principal",
      "latitud": "14.06245697",
      "longitud": "-86.10716874"
    },
    {
      "pais": "Honduras",
      "departamento": "Francisco Morazán",
      "ciudad": "El Porvenir",
      "nombre": "Mercadito Mariela",
      "direccion": "El Porvenir Cll Principal Col. Alemania",
      "latitud": "14.7545855",
      "longitud": "-87.1886274"
    },
    {
      "pais": "Honduras",
      "departamento": "Francisco Morazán",
      "ciudad": "La Leona",
      "nombre": "Pulperia Coco",
      "direccion": "Bo. La Concordia,",
      "latitud": "14.1134298",
      "longitud": "-87.2048718"
    },
    {
      "pais": "Honduras",
      "departamento": "Francisco Morazán",
      "ciudad": "La Leona",
      "nombre": "Pulperia Coco",
      "direccion": "Bo. La Concordia,",
      "latitud": "14.1134298",
      "longitud": "-87.2048718"
    },
    {
      "pais": "Honduras",
      "departamento": "Francisco Morazán",
      "ciudad": "El Porvenir",
      "nombre": "Pul. Ana",
      "direccion": "El Porvenir Barrio Las Acacias",
      "latitud": "14.7526436",
      "longitud": "-87.1929728"
    },
    {
      "pais": "Honduras",
      "departamento": "Francisco Morazán",
      "ciudad": "Colonia Centroamericana",
      "nombre": "Opul. Hnas Carcamo",
      "direccion": "Col. Centro America",
      "latitud": "14.0904277",
      "longitud": "-87.2152098"
    },
    {
      "pais": "Honduras",
      "departamento": "Olancho",
      "ciudad": "Catacamas",
      "nombre": "La Esquina Del Ahorro",
      "direccion": "B.Sta Cruz",
      "latitud": "14.8454653",
      "longitud": "-85.898375"
    },
    {
      "pais": "Honduras",
      "departamento": "Francisco Morazán",
      "ciudad": "La Venta",
      "nombre": "Mercadito Bak, S",
      "direccion": "Aldea Opimuca Caserio la CaÃñadas",
      "latitud": "13.7446149",
      "longitud": "-87.3618951"
    },
    {
      "pais": "Honduras",
      "departamento": "Olancho",
      "ciudad": "Arenas Blancas",
      "nombre": "Pulp. La Pista",
      "direccion": "Arenas Blancas",
      "latitud": "14.320486",
      "longitud": "-85.808558"
    },
    {
      "pais": "Honduras",
      "departamento": "El Paraíso",
      "ciudad": "Oculi",
      "nombre": "Pulp. Leny",
      "direccion": "Oculi",
      "latitud": "14.1256839",
      "longitud": "-86.4036428"
    },
    {
      "pais": "Honduras",
      "departamento": "El Paraíso",
      "ciudad": "Santa Maria",
      "nombre": "Bodeguita Ale",
      "direccion": "Santa Maria",
      "latitud": "14.1496687",
      "longitud": "-86.2390238"
    },
    {
      "pais": "Honduras",
      "departamento": "Francisco Morazán",
      "ciudad": "Colonia Nueva Esperanza",
      "nombre": "Pulperia Norteña",
      "direccion": "Col.Nueva Esperanza calle principal",
      "latitud": "14.08248019",
      "longitud": "-87.2196757"
    },
    {
      "pais": "Honduras",
      "departamento": "Olancho",
      "ciudad": "Gualaco",
      "nombre": "minisuper pacura",
      "direccion": "Aldea Pacura",
      "latitud": "15.2710334",
      "longitud": "-85.9371383"
    },
    {
      "pais": "Honduras",
      "departamento": "Choluteca",
      "ciudad": "Colonia Felicidad",
      "nombre": "Caseta Martha",
      "direccion": "Aldea El Divisadero calle principal",
      "latitud": "13.3251583",
      "longitud": "-87.151395"
    },
    {
      "pais": "Honduras",
      "departamento": "Choluteca",
      "ciudad": "El Guapinol",
      "nombre": "Pulperia  Gemelas",
      "direccion": "Guapinol calle Principal Orilla de calle",
      "latitud": "13.1219958",
      "longitud": "-87.407361"
    },
    {
      "pais": "Honduras",
      "departamento": "El Paraíso",
      "ciudad": "El Paraíso",
      "nombre": "Pulperia Pamela",
      "direccion": "Barrio el centro",
      "latitud": "13.8578052",
      "longitud": "-86.5540979"
    },
    {
      "pais": "Honduras",
      "departamento": "Comayagua",
      "ciudad": "La Libertad",
      "nombre": "Alfa y Omega",
      "direccion": "Barrio el Centro",
      "latitud": "14.806038",
      "longitud": "-87.518871"
    },
    {
      "pais": "Honduras",
      "departamento": "Intibucá",
      "ciudad": "Masaguara",
      "nombre": "Pulperia Isabella",
      "direccion": "Frente al centro básico  el esfuerzo Masaguara",
      "latitud": "14.43300837",
      "longitud": "-87.90873762"
    },
    {
      "pais": "Honduras",
      "departamento": "Olancho",
      "ciudad": "Juticalpa",
      "nombre": "Pulp La Fortaleza",
      "direccion": "Barrio La Calona Principal Frente A Centro Integral",
      "latitud": "14.67246",
      "longitud": "-86.2149567"
    },
    {
      "pais": "Honduras",
      "departamento": "El Paraíso",
      "ciudad": "Morocelí",
      "nombre": "Abarroteria Moroceli",
      "direccion": "Barrio el colegio",
      "latitud": "14.1229533",
      "longitud": "-86.864457"
    },
    {
      "pais": "Honduras",
      "departamento": "Choluteca",
      "ciudad": "San Marcos de Colón",
      "nombre": "inversiones los olivos",
      "direccion": "calle principal del centro san marcos colon",
      "latitud": "13.4328883",
      "longitud": "-86.80728"
    },
    {
      "pais": "Honduras",
      "departamento": "El Paraíso",
      "ciudad": "Danlí",
      "nombre": "pulpería y golosinas Aguilar",
      "direccion": "Barrio el Carmelo",
      "latitud": "14.0364216",
      "longitud": "-86.5755983"
    },
    {
      "pais": "Honduras",
      "departamento": "Choluteca",
      "ciudad": "Colonia Venecia",
      "nombre": "Inversiones D Y Ch S. De R.L.",
      "direccion": "Barrio las colinas,",
      "latitud": "13.3093985",
      "longitud": "-87.1696362"
    },
    {
      "pais": "Honduras",
      "departamento": "El Paraíso",
      "ciudad": "Yuscarán",
      "nombre": "Pulperia Yajaira",
      "direccion": "Barrio el centro",
      "latitud": "13.9460633",
      "longitud": "-86.8509083"
    },
    {
      "pais": "Honduras",
      "departamento": "El Paraíso",
      "ciudad": "ALAUCA",
      "nombre": "Bodeguita La Bendicion",
      "direccion": "Barrio el centro",
      "latitud": "13.8532283",
      "longitud": "-86.6860008"
    },
    {
      "pais": "Honduras",
      "departamento": "El Paraíso",
      "ciudad": "San Matías",
      "nombre": "Pulperia Mina",
      "direccion": "San Matias",
      "latitud": "13.9776706",
      "longitud": "-86.6302502"
    },
    {
      "pais": "Honduras",
      "departamento": "Francisco Morazán",
      "ciudad": "Ciudad España",
      "nombre": "Pul Valentina",
      "direccion": "Ciudad espaÃ±a calle Principal",
      "latitud": "14.1862517",
      "longitud": "-87.3782317"
    },
    {
      "pais": "Honduras",
      "departamento": "Olancho",
      "ciudad": "Jutiquile",
      "nombre": "Pulp. Yadira",
      "direccion": "Aldea Jutiquile",
      "latitud": "14.73809135",
      "longitud": "-86.09548807"
    },
    {
      "pais": "Honduras",
      "departamento": "Francisco Morazán",
      "ciudad": "La Joya",
      "nombre": "Mercadito La Confianza",
      "direccion": "Col. La Joya Calle Principal",
      "latitud": "14.0659233",
      "longitud": "-87.1929744"
    },
    {
      "pais": "Honduras",
      "departamento": "Francisco Morazán",
      "ciudad": "Alemán",
      "nombre": "Míni Market Zambrano",
      "direccion": "Colonia Aleman calle principal",
      "latitud": "14.0583705",
      "longitud": "-87.1960317"
    },
    {
      "pais": "Honduras",
      "departamento": "Choluteca",
      "ciudad": "Santa Ana de Yusguare",
      "nombre": "Inversiones Osmin",
      "direccion": "calle frente al parque del pueble",
      "latitud": "13.2998217",
      "longitud": "-87.1135243"
    },
    {
      "pais": "Honduras",
      "departamento": "Comayagua",
      "ciudad": "El Rosario",
      "nombre": "Comercial Anyela",
      "direccion": "Calle Principal",
      "latitud": "14.5800262",
      "longitud": "-87.7273665"
    },
    {
      "pais": "Honduras",
      "departamento": "Francisco Morazán",
      "ciudad": "Colonia 3 de Mayo",
      "nombre": "Pulperia Mi Bendicion",
      "direccion": "Col. Zapote Centro, Calle Principal",
      "latitud": "14.1030899",
      "longitud": "-87.225199"
    },
    {
      "pais": "Honduras",
      "departamento": "Francisco Morazán",
      "ciudad": "La Laguna",
      "nombre": "Mercadito Ebenezer",
      "direccion": "La Laguna Calle  Principal",
      "latitud": "14.1070383",
      "longitud": "-87.22969"
    },
    {
      "pais": "Honduras",
      "departamento": "Intibucá",
      "ciudad": "Concepción",
      "nombre": "Variedades Lopez",
      "direccion": "POR LA SEGUNDA SALIDA A CAMASCA",
      "latitud": "14.037783",
      "longitud": "-88.353665"
    },
    {
      "pais": "Honduras",
      "departamento": "Comayagua",
      "ciudad": "Villa de San Antonio",
      "nombre": "Pulperia Aguila",
      "direccion": "Calle principal",
      "latitud": "14.3210638",
      "longitud": "-87.6143257"
    },
    {
      "pais": "Honduras",
      "departamento": "Francisco Morazán",
      "ciudad": "Altos de San José",
      "nombre": "Chiclera Juanita",
      "direccion": "Colonia El Pedregal calle principal",
      "latitud": "14.0624967",
      "longitud": "-87.2052335"
    },
    {
      "pais": "Honduras",
      "departamento": "Intibucá",
      "ciudad": "Santa Lucía",
      "nombre": "Pulperia Ramos-Cedillo",
      "direccion": "SEGUNDA CALLE DEL COMERCIO",
      "latitud": "13.919254",
      "longitud": "-88.391305"
    },
    {
      "pais": "Honduras",
      "departamento": "Intibucá",
      "ciudad": "Intibucá",
      "nombre": "Abarroteria Angel",
      "direccion": "calle circuvalacion calle principalfrent",
      "latitud": "14.31174",
      "longitud": "-88.1739983"
    },
    {
      "pais": "Honduras",
      "departamento": "Francisco Morazán",
      "ciudad": "El Rincón",
      "nombre": "pulperia Marggy",
      "direccion": "La Joya,",
      "latitud": "14.1105725",
      "longitud": "-87.1795503"
    },
    {
      "pais": "Honduras",
      "departamento": "Intibucá",
      "ciudad": "Camasca",
      "nombre": "Abarroteria lopez",
      "direccion": "CAMASCA CALLE PRINCIPAL BARRIO LA CEIBA",
      "latitud": "13.996634",
      "longitud": "-88.376828"
    },
    {
      "pais": "Honduras",
      "departamento": "Choluteca",
      "ciudad": "Monjarás",
      "nombre": "Inversiones + Kota Rojo",
      "direccion": "calle principal monjaras, fascia ranchitas",
      "latitud": "13.2031714",
      "longitud": "-87.3688699"
    },
    {
      "pais": "Honduras",
      "departamento": "Olancho",
      "ciudad": "Juticalpa",
      "nombre": "Inversiones Roca",
      "direccion": "Barrio belen",
      "latitud": "14.6704151",
      "longitud": "-86.2237581"
    },
    {
      "pais": "Honduras",
      "departamento": "Francisco Morazán",
      "ciudad": "Comayagüela",
      "nombre": "Rapi Compras",
      "direccion": "Calle AguaAzul, calle Principal",
      "latitud": "14.129369",
      "longitud": "-87.2274913"
    },
    {
      "pais": "Honduras",
      "departamento": "Olancho",
      "ciudad": "Catacamas",
      "nombre": "Inversiones Lagos Y Vindel",
      "direccion": "Bo San sebastian",
      "latitud": "14.8488737",
      "longitud": "-85.8957664"
    },
    {
      "pais": "Honduras",
      "departamento": "Olancho",
      "ciudad": "Santa Maria del Real",
      "nombre": "Pulperia Hector Midence",
      "direccion": "Col. 8 de mayo",
      "latitud": "14.8237417",
      "longitud": "-85.9373283"
    },
    {
      "pais": "Honduras",
      "departamento": "Olancho",
      "ciudad": "Juticalpa",
      "nombre": "Golosinas Daniela",
      "direccion": "B. El Guanacaste",
      "latitud": "14.6774772",
      "longitud": "-86.2227618"
    },
    {
      "pais": "Honduras",
      "departamento": "Comayagua",
      "ciudad": "Minas de Oro",
      "nombre": "Pulperia Nazli",
      "direccion": "Minas de Oro",
      "latitud": "14.79664075",
      "longitud": "-87.34582543"
    },
    {
      "pais": "Honduras",
      "departamento": "Francisco Morazán",
      "ciudad": "Valle de Ángeles",
      "nombre": "Chicos Mini Market",
      "direccion": "Valle de Angeles",
      "latitud": "14.1569685",
      "longitud": "-87.0462233"
    },
    {
      "pais": "Honduras",
      "departamento": "Francisco Morazán",
      "ciudad": "Río Abajo",
      "nombre": "abarroteria nohemi",
      "direccion": "Aldea Rio Abajo, calle principal",
      "latitud": "14.16986",
      "longitud": "-87.2056691"
    },
    {
      "pais": "Honduras",
      "departamento": "Francisco Morazán",
      "ciudad": "El Porvenir",
      "nombre": "Pul. Carlos",
      "direccion": "El Porvenir Barrio La Cañada Calle Principal",
      "latitud": "14.7505143",
      "longitud": "-87.1924755"
    },
    {
      "pais": "Honduras",
      "departamento": "Choluteca",
      "ciudad": "Marcovia",
      "nombre": "Pulp. Yaneth",
      "direccion": "Col. Care,Renacer,Marcovia",
      "latitud": "13.288897",
      "longitud": "-87.283357"
    },
    {
      "pais": "Honduras",
      "departamento": "Choluteca",
      "ciudad": "El Triunfo",
      "nombre": "Pulperia Karen",
      "direccion": "27 de mayo Calle principal Salida calle a santa Teresa",
      "latitud": "13.1205",
      "longitud": "-87.001705"
    },
    {
      "pais": "Honduras",
      "departamento": "Choluteca",
      "ciudad": "Los Llanitos",
      "nombre": "Mercadito Familiar",
      "direccion": "Calle Principal Los Llanitos Marco",
      "latitud": "13.288143",
      "longitud": "-87.334426"
    },
    {
      "pais": "Honduras",
      "departamento": "Choluteca",
      "ciudad": "El Triunfo",
      "nombre": "Pulp. Valeri",
      "direccion": "Bo.guasaule a la par de las bodegas",
      "latitud": "13.0818859",
      "longitud": "-87.002817"
    },
    {
      "pais": "Honduras",
      "departamento": "Choluteca",
      "ciudad": "Choluteca",
      "nombre": "Pulperia Alexander",
      "direccion": "barrio balcanes frente al campo",
      "latitud": "13.2782052",
      "longitud": "-87.1555196"
    },
    {
      "pais": "Honduras",
      "departamento": "Olancho",
      "ciudad": "Campamento",
      "nombre": "Mercadito Ahorra Mas",
      "direccion": "Aldea La Lima",
      "latitud": "14.5492101",
      "longitud": "-86.6627831"
    },
    {
      "pais": "Honduras",
      "departamento": "Francisco Morazán",
      "ciudad": "Divina Providencia",
      "nombre": "Abarrotería Martínes",
      "direccion": "Tegucigalpa",
      "latitud": "14.2200387",
      "longitud": "-87.3808649"
    },
    {
      "pais": "Honduras",
      "departamento": "Francisco Morazán",
      "ciudad": "La Ermita",
      "nombre": "Pulperia El Pana",
      "direccion": "Tegucigalpa",
      "latitud": "14.4704939",
      "longitud": "-87.0729847"
    },
    {
      "pais": "Honduras",
      "departamento": "Francisco Morazán",
      "ciudad": "La Ermita",
      "nombre": "Abarroteria Carina",
      "direccion": "Tegucigalpa",
      "latitud": "14.4625031",
      "longitud": "-87.0696228"
    },
    {
      "pais": "Honduras",
      "departamento": "Choluteca",
      "ciudad": "Las Joyadas",
      "nombre": "Bodeguita Mileydi",
      "direccion": "La Joyada Marcovia",
      "latitud": "13.3336446",
      "longitud": "-87.3026848"
    },
    {
      "pais": "Honduras",
      "departamento": "Comayagua",
      "ciudad": "Las Lajas",
      "nombre": "Pul Paty",
      "direccion": "Calle Principal",
      "latitud": "14.8865733",
      "longitud": "-87.5717567"
    },
    {
      "pais": "Honduras",
      "departamento": "Comayagua",
      "ciudad": "Colonia Del Inva",
      "nombre": "Mercadito El Éxito",
      "direccion": "2 cuadras al oeste del edificio San Blas",
      "latitud": "14.4568233",
      "longitud": "-87.6321766"
    },
    {
      "pais": "Honduras",
      "departamento": "Olancho",
      "ciudad": "Catacamas",
      "nombre": "Mercadito G.S",
      "direccion": "Barrio Santa Cruz",
      "latitud": "14.8391433",
      "longitud": "-85.8981866"
    },
    {
      "pais": "Honduras",
      "departamento": "Choluteca",
      "ciudad": "Cedeño",
      "nombre": "Mercadito La Preferida",
      "direccion": "cedeño calle principal camino al mar",
      "latitud": "13.1699596",
      "longitud": "-87.4318125"
    },
    {
      "pais": "Honduras",
      "departamento": "Francisco Morazán",
      "ciudad": "Río Abajo",
      "nombre": "Pulperia Heizen",
      "direccion": "col.cataluña, calle Principal",
      "latitud": "14.154125",
      "longitud": "-87.2071996"
    },
    {
      "pais": "Honduras",
      "departamento": "Olancho",
      "ciudad": "La Concepcion",
      "nombre": "Pulperia Martha",
      "direccion": "LA CONCEPCION MEDIA CUADRA ANTES DEL COL",
      "latitud": "14.64616",
      "longitud": "-86.1909567"
    },
    {
      "pais": "Honduras",
      "departamento": "Olancho",
      "ciudad": "Catacamas",
      "nombre": "Pul Leo",
      "direccion": "Barrio el estadio, Boulevar Las acacias",
      "latitud": "14.839316",
      "longitud": "-85.891081"
    },
    {
      "pais": "Honduras",
      "departamento": "Choluteca",
      "ciudad": "Pespire",
      "nombre": "Pulperia 2 Hermanos",
      "direccion": "Calle panamericanapuente nacaome",
      "latitud": "13.5796186",
      "longitud": "-87.366274"
    },
    {
      "pais": "Honduras",
      "departamento": "Choluteca",
      "ciudad": "Choluteca",
      "nombre": "Abarrotes Y Mas",
      "direccion": "Ciudad nueva calle principal en parada de buses",
      "latitud": "13.343383",
      "longitud": "-87.1344343"
    },
    {
      "pais": "Honduras",
      "departamento": "Choluteca",
      "ciudad": "Barrio San Luis",
      "nombre": "Pulperia Flor",
      "direccion": "Blvd san luis calle principal",
      "latitud": "13.2922501",
      "longitud": "-87.1901595"
    },
    {
      "pais": "Honduras",
      "departamento": "Choluteca",
      "ciudad": "Santa Ana de Yusguare",
      "nombre": "Farmacia Ivone Dariela",
      "direccion": "calle principal del municipio",
      "latitud": "13.3039663",
      "longitud": "-87.1091986"
    },
    {
      "pais": "Honduras",
      "departamento": "Choluteca",
      "ciudad": "Las Delicias",
      "nombre": "Pulperia Helen",
      "direccion": "Ola Marcovia,100mts al Sur de promangle",
      "latitud": "13.3259366",
      "longitud": "-87.2859746"
    },
    {
      "pais": "Honduras",
      "departamento": "Francisco Morazán",
      "ciudad": "Monte Redondo",
      "nombre": "Pulperia Fedra",
      "direccion": "Aldea  Monte Redondo calle principal",
      "latitud": "14.2844937",
      "longitud": "-87.2437446"
    },
    {
      "pais": "Honduras",
      "departamento": "Valle",
      "ciudad": "Nacaome",
      "nombre": "Granitas Marcela",
      "direccion": "B el centro",
      "latitud": "13.53086562",
      "longitud": "-87.48819161"
    },
    {
      "pais": "Honduras",
      "departamento": "Choluteca",
      "ciudad": "Barrio Nueva Esperanza",
      "nombre": "Pulperia Katy",
      "direccion": "Bo. Nueva Esperanza calle Principal Abajo de departamentos",
      "latitud": "13.30197833",
      "longitud": "-87.173895"
    },
    {
      "pais": "Honduras",
      "departamento": "Choluteca",
      "ciudad": "San Antonio de Flores",
      "nombre": "Pulperia Wilmer",
      "direccion": "Pespire Esquimay centro Calle princ",
      "latitud": "13.6870445",
      "longitud": "-87.3093912"
    },
    {
      "pais": "Honduras",
      "departamento": "Francisco Morazán",
      "ciudad": "Río Abajo",
      "nombre": "Pulperia Maria Jose",
      "direccion": "Entrada a la Villa Miller",
      "latitud": "14.1640875",
      "longitud": "-87.199882"
    },
    {
      "pais": "Honduras",
      "departamento": "Valle",
      "ciudad": "Amapala",
      "nombre": "Pulperia Lesby",
      "direccion": "Playa Grande Amapala",
      "latitud": "13.2813825",
      "longitud": "-87.6578377"
    },
    {
      "pais": "Honduras",
      "departamento": "Francisco Morazán",
      "ciudad": "El Chimbo",
      "nombre": "Mini Market El Chimbo",
      "direccion": "El Chimbo,Calle principal,",
      "latitud": "14.1347968",
      "longitud": "-87.119606"
    },
    {
      "pais": "Honduras",
      "departamento": "Comayagua",
      "ciudad": "Barrio Arriba",
      "nombre": "Pulperia Ashly",
      "direccion": "2 cuadras al sus de las instalaciones del IP",
      "latitud": "14.4548133",
      "longitud": "-87.635355"
    },
    {
      "pais": "Honduras",
      "departamento": "Intibucá",
      "ciudad": "La Esperanza",
      "nombre": "Mercadito El Campechano",
      "direccion": "frt a Banpais,contiguo a Supermercado Deysi",
      "latitud": "14.3088409",
      "longitud": "-88.1751443"
    },
    {
      "pais": "Honduras",
      "departamento": "Comayagua",
      "ciudad": "Taulabe",
      "nombre": "Pul Kenia",
      "direccion": "Bo Sta Barbara, ala par de la post policial",
      "latitud": "14.6960834",
      "longitud": "-87.9675357"
    },
    {
      "pais": "Honduras",
      "departamento": "Intibucá",
      "ciudad": "Jesús de Otoro",
      "nombre": "Mercadito En Casa",
      "direccion": "2da calleMedia cuadra al sur Instituto S",
      "latitud": "14.48912607",
      "longitud": "-87.98468437"
    },
    {
      "pais": "Honduras",
      "departamento": "Francisco Morazán",
      "ciudad": "Tegucigalpa",
      "nombre": "Bayron Place",
      "direccion": "Col. Kennedy, Fte Esc. John F. Kennedy.",
      "latitud": "14.0674367",
      "longitud": "-87.180305"
    },
    {
      "pais": "Honduras",
      "departamento": "Choluteca",
      "ciudad": "El Laure",
      "nombre": "Pulpería Gloria",
      "direccion": "Tambor",
      "latitud": "13.4223783",
      "longitud": "-87.3639667"
    },
    {
      "pais": "Honduras",
      "departamento": "La Paz",
      "ciudad": "Marcala",
      "nombre": "Pul joseth",
      "direccion": "Calle principal",
      "latitud": "14.1192183",
      "longitud": "-88.01529"
    },
    {
      "pais": "Honduras",
      "departamento": "Olancho",
      "ciudad": "Juticalpa",
      "nombre": "Mercadito Valery",
      "direccion": "Aldea Bijao",
      "latitud": "14.647565",
      "longitud": "-86.217012"
    },
    {
      "pais": "Honduras",
      "departamento": "Choluteca",
      "ciudad": "San Marcos de Colón",
      "nombre": "Panaderia Y Taller Diaz",
      "direccion": "Blvd san jose , desvio a duyure, calle panamericana",
      "latitud": "13.4329487",
      "longitud": "-86.8133303"
    },
    {
      "pais": "Honduras",
      "departamento": "Olancho",
      "ciudad": "Campamento",
      "nombre": "Pulp. Andrea",
      "direccion": "Camp. B-Los Prof.",
      "latitud": "14.5492753",
      "longitud": "-86.662753"
    },
    {
      "pais": "Honduras",
      "departamento": "La Paz",
      "ciudad": "La Paz",
      "nombre": "Mercadito Los Angeles",
      "direccion": "Calle principal",
      "latitud": "14.3267123",
      "longitud": "-87.687689"
    },
    {
      "pais": "Honduras",
      "departamento": "Valle",
      "ciudad": "San Lorenzo",
      "nombre": "Pulp La Bendicion",
      "direccion": "San Lorenzo Barrio san Antonio Call",
      "latitud": "13.427631",
      "longitud": "-87.4447824"
    },
    {
      "pais": "Honduras",
      "departamento": "Valle",
      "ciudad": "San Lorenzo",
      "nombre": "Pulperia Angelina",
      "direccion": "San Lorenzo Barrio san jose Calle p",
      "latitud": "13.4178371",
      "longitud": "-87.452482"
    },
    {
      "pais": "Honduras",
      "departamento": "Valle",
      "ciudad": "San Lorenzo",
      "nombre": "Pulpería Rosita",
      "direccion": "San Lorenzo col. Gracias a Dios Calle principal",
      "latitud": "13.4229665",
      "longitud": "-87.4420256"
    },
    {
      "pais": "Honduras",
      "departamento": "Comayagua",
      "ciudad": "Siguatepeque",
      "nombre": "Puperia Elsa",
      "direccion": "saragoza 1/2 cuadra de la escuela",
      "latitud": "14.5848424",
      "longitud": "-87.8439923"
    },
    {
      "pais": "Honduras",
      "departamento": "Francisco Morazán",
      "ciudad": "Tegucigalpa",
      "nombre": "Mercadito Gael",
      "direccion": "Colonia Berlin Calle Principal",
      "latitud": "14.0898695",
      "longitud": "-87.2604439"
    },
    {
      "pais": "Honduras",
      "departamento": "Francisco Morazán",
      "ciudad": "Las Torres",
      "nombre": "Pul Itiel",
      "direccion": "Las Torres calle principal",
      "latitud": "14.0645407",
      "longitud": "-87.2291789"
    },
    {
      "pais": "Honduras",
      "departamento": "Francisco Morazán",
      "ciudad": "Colonia San Francisco",
      "nombre": "Mercadito D Y D",
      "direccion": "Col.Altos De San Francisco Calle Principal",
      "latitud": "14.079745",
      "longitud": "-87.2276317"
    },
    {
      "pais": "Honduras",
      "departamento": "Intibucá",
      "ciudad": "San Antonio",
      "nombre": "Mercadito El Tamarindo",
      "direccion": "PARTE DE ABAJO DEL COMERCIO",
      "latitud": "13.961403",
      "longitud": "-88.473664"
    },
    {
      "pais": "Honduras",
      "departamento": "Choluteca",
      "ciudad": "El Corpus",
      "nombre": "Mercadito El Banquito",
      "direccion": "Calle principal del banquito",
      "latitud": "13.3706774",
      "longitud": "-86.9714316"
    },
    {
      "pais": "Honduras",
      "departamento": "Francisco Morazán",
      "ciudad": "Sabanagrande",
      "nombre": "Súper Económico el marañon",
      "direccion": "Sabana Grande carretera al sur",
      "latitud": "13.8423606",
      "longitud": "-87.2465069"
    },
    {
      "pais": "Honduras",
      "departamento": "Francisco Morazán",
      "ciudad": "Santa Ana",
      "nombre": "Pulperia Olga",
      "direccion": "Santa Ana barrio el calvario calle principal",
      "latitud": "13.9330854",
      "longitud": "-87.2702641"
    },
    {
      "pais": "Honduras",
      "departamento": "Olancho",
      "ciudad": "Juticalpa",
      "nombre": "Mini Aboroteria Osquitar",
      "direccion": "B La Soledad Juticalpa",
      "latitud": "14.6713917",
      "longitud": "-86.2263267"
    },
    {
      "pais": "Honduras",
      "departamento": "Francisco Morazán",
      "ciudad": "Colonia Villa Los Laureles",
      "nombre": "La Tiendita",
      "direccion": "Col Villa Los Laures Interseccion 2 Cll 2 Entrada",
      "latitud": "14.07344",
      "longitud": "-87.2308784"
    },
    {
      "pais": "Honduras",
      "departamento": "Comayagua",
      "ciudad": "Las Lajas",
      "nombre": "pulpería Maesy",
      "direccion": "Elcentro",
      "latitud": "14.894538",
      "longitud": "-87.579766"
    },
    {
      "pais": "Honduras",
      "departamento": "Francisco Morazán",
      "ciudad": "Colonia Reparto Abajo",
      "nombre": "Pulperia Letty",
      "direccion": "Reparto Arriba Calle Principal Avenida La Esperanza",
      "latitud": "14.1159877",
      "longitud": "-87.1870782"
    },
    {
      "pais": "Honduras",
      "departamento": "Francisco Morazán",
      "ciudad": "Gracias A Dios",
      "nombre": "Pulp.Maranatha",
      "direccion": "Col Gracias A Dios calle principal",
      "latitud": "14.100181",
      "longitud": "-87.2383977"
    },